     3.04           OBSERVATION DATA    M: Mixed            RINEX VERSION / TYPE
CONVBIN 2.4.3                           20260424 063757 UTC PGM / RUN BY / DATE 
format: u-blox UBX                                          COMMENT             
log: 2026-4-15_174245_serial-COM5(1).ubx                    COMMENT             
                                                            MARKER NAME         
                                                            MARKER NUMBER       
                                                            MARKER TYPE         
                                                            OBSERVER / AGENCY   
                                                            REC # / TYPE / VERS 
                                                            ANT # / TYPE        
 -2391480.1810  5387242.7375  2429280.7418                  APPROX POSITION XYZ 
        0.0000        0.0000        0.0000                  ANTENNA: DELTA H/E/N
G    2 C1C L1C                                              SYS / # / OBS TYPES 
E    2 C1C L1C                                              SYS / # / OBS TYPES 
J    2 C1C L1C                                              SYS / # / OBS TYPES 
S    2 C1C L1C                                              SYS / # / OBS TYPES 
  2026    04    15    09    43   07.0010000     GPS         TIME OF FIRST OBS   
  2026    04    15    09    48   30.0020000     GPS         TIME OF LAST OBS    
G L1C                                                       SYS / PHASE SHIFT   
E L1C  0.00000                                              SYS / PHASE SHIFT   
J L1C                                                       SYS / PHASE SHIFT   
S L1C                                                       SYS / PHASE SHIFT   
  0                                                         GLONASS SLOT / FRQ #
 C1C    0.000 C1P    0.000 C2C    0.000 C2P    0.000        GLONASS COD/PHS/BIS 
                                                            END OF HEADER       
> 2026 04 15 09 43 07.0010000  0 10                     
G15  21372927.400   112315486.2091 
G20  20655498.132   108545376.8761 
E03  24761214.166   130121071.8051 
G29  22415358.674   117793494.8741 
J02  36807884.394   193426830.4701 
G11  22061085.060                  
G13  20321419.090                1 
G05  21739815.078                1 
S29  37304586.688   196036924.6181 
S28  37709861.392   198166647.1941 
> 2026 04 15 09 43 08.0010000  0 11                     
G15  21372668.141   112314123.086  
G20  20655554.981   108545675.441  
E03  24760987.833   130119884.326  
G29  22415165.986   117792483.959  
J02  36808145.367   193428201.750  
E36  25778347.946                3 
G11  22061426.600                  
G13  20321445.018   106789955.0581 
G05  21740101.687   114245052.0751 
S29  37304760.697   196037839.731  
S28  37710035.792   198167564.853  
> 2026 04 15 09 43 09.0010000  0 11                     
G15  21372408.997   112312761.488  
G20  20655612.029   108545975.653  
E03  24760762.155   130118698.186  
G29  22414973.777   117791474.633  
J02  36808406.737   193429574.064  
E36  25778627.403                3 
G11  22061768.580                  
G13  20321471.135                  
G05  21740388.261   114246573.156  
S29  37304935.362   196038755.897  
S28  37710210.484   198168483.658  
> 2026 04 15 09 43 10.0010000  0 10                     
G15  21372150.604   112311403.527  
G20  20655670.002   108546279.633  
E03  24760537.689   130117515.535  
G29  22414782.274   117790469.011  
E36  25778908.422                3 
G11  22062110.942                  
G13  20321498.080                  
G05  21740679.267   114248097.499  
S29  37305110.061   196039675.223  
S28  37710385.890   198169405.543  
> 2026 04 15 09 43 11.0010000  0 11                     
G15  21371893.145   112310050.205  
G20  20655728.768   108546588.371  
E03  24760313.450   130116337.355  
G29  22414591.909   117789468.083  
J02  36808924.991   193432205.8543 
E36  25779188.994                3 
G11  22062454.213                  
G13  20321526.086                  
G05  21740970.923   114249626.148  
S29  37305286.134   196040598.697  
S28  37710562.114   198170331.560  
> 2026 04 15 09 43 12.0010000  0 10                     
G15  21371636.233   112308699.811  
G20  20655788.194   108546900.167  
E03  24760089.729   130115161.946  
G29  22414401.672   117788470.150  
J02  36809192.985   193433588.0012 
G11  22062798.054                  
G13  20321554.641                  
G05  21741267.043                  
S29  37305462.354   196041524.616  
S28  37710738.905   198171259.985  
> 2026 04 15 09 43 13.0010000  0 11                     
G15  21371378.881   112307347.826  
G20  20655847.125   108547210.509  
E03  24759865.672   130113984.799  
G29  22414211.597   117787470.732  
J02  36809458.168   193434968.1142 
E36  25779749.278                3 
G11  22063141.641                  
G13  20321582.685                  
G05  21741560.641                  
S29  37305637.902   196042448.485  
S28  37710915.338   198172186.349  
> 2026 04 15 09 43 14.0010000  0 11                     
G15  21371121.393   112305994.523  
G20  20655905.980   108547519.662  
E03  24759641.440   130112806.155  
G29  22414021.262   117786470.040  
J02  36809721.112   193436346.0481 
E36  25780032.674                3 
G11  22063484.910                  
G13  20321610.647                  
G05  21741849.590                  
S29  37305813.255   196043370.554  
S28  37711091.328   198173110.924  
> 2026 04 15 09 43 15.0010000  0 11                     
G25  25687596.209                3 
G15  21370863.963   112304640.747  
G20  20655964.715   108547828.455  
E03  24759416.821   130111626.879  
G29  22413830.749   117785468.892  
J02  36809983.091   193437723.397  
G11  22063827.721                  
G13  20321638.418                  
G05  21742139.230                  
S29  37305988.628   196044291.646  
S28  37711267.218   198174034.453  
> 2026 04 15 09 43 16.0010000  0 10                     
G15  21370606.216   112303286.931  
G20  20656023.507   108548137.341  
E03  24759192.388   130110447.415  
G29  22413640.322   117784467.851  
J02  36810245.017   193439100.330  
G11  22064170.646                  
G13  20321666.527                  
G05  21742425.901                  
S29  37306163.723   196045212.228  
S28  37711442.974   198174957.502  
> 2026 04 15 09 43 17.0010000  0 10                     
G15  21370348.770   112301933.132  
G20  20656082.170   108548446.388  
E03  24758968.098   130109267.811  
G29  22413449.960   117783466.864  
J02  36810506.849   193440476.817  
G11  22064513.269                  
G13  20321694.320                  
G05  21742709.236                3 
S29  37306338.947   196046132.360  
S28  37711618.574   198175880.176  
> 2026 04 15 09 43 18.0010000  0 10                     
G15  21370091.091   112300579.689  
G20  20656141.135   108548755.896  
E03  24758743.333   130108088.381  
G29  22413259.685   117782466.310  
J02  36810768.561   193441853.213  
G11  22064856.165                  
G13  20321722.322                  
G05  21742995.625                3 
S29  37306513.840   196047052.348  
S28  37711794.149   198176802.718  
> 2026 04 15 09 43 19.0010000  0 10                     
G15  21369833.505   112299226.515  
G20  20656200.133   108549065.811  
E03  24758519.066   130106909.068  
G29  22413069.566   117781466.099  
J02  36811030.537   193443229.413  
G11  22065198.913                  
G13  20321750.175                3 
G05  21743284.161                3 
S29  37306688.957   196047972.130  
S28  37711969.765   198177725.052  
> 2026 04 15 09 43 20.0010000  0 10                     
G15  21369576.398   112297873.714  
G20  20656259.253   108549376.249  
E03  24758294.756   130105729.987  
G29  22412879.586   117780466.316  
J02  36811292.651   193444605.529  
G11  22065540.848                3 
G13  20321776.786                3 
G05  21743574.242                3 
S29  37306863.913   196048891.811  
S28  37712145.176   198178647.375  
> 2026 04 15 09 43 21.0010000  0 10                     
G15  21369318.993   112296521.266  
G20  20656318.554   108549687.138  
E03  24758070.401   130104551.090  
G29  22412689.225   117779466.974  
J02  36811554.345   193445981.568  
G11  22065881.663                3 
G13  20321801.750                3 
G05  21743868.098                3 
S29  37307038.819   196049811.371  
S28  37712320.597   198179569.485  
> 2026 04 15 09 43 22.0010000  0 10                     
G15  21369061.893   112295169.368  
G20  20656377.568   108549998.710  
E03  24757846.163   130103372.573  
G29  22412499.001   117778468.242  
J02  36811816.401   193447357.663  
G11  22066224.706                3 
G13  20321825.260                3 
G05  21744163.092                3 
S29  37307213.787   196050730.990  
S28  37712496.002   198180491.659  
> 2026 04 15 09 43 23.0010000  0 10                     
G15  21368804.616   112293817.855  
G20  20656436.831   108550310.790  
E03  24757621.760   130102194.278  
G29  22412308.786   117777469.955  
J02  36812078.500   193448733.698  
G11  22066566.707                3 
G13  20321851.369                3 
G05  21744455.757                3 
S29  37307388.643   196051650.518  
S28  37712671.553   198181413.673  
> 2026 04 15 09 43 24.0010000  0 10                     
G15  21368547.529   112292466.699  
G20  20656496.381   108550623.366  
E03  24757397.688   130101016.198  
G29  22412119.007   117776472.115  
J02  36812340.573   193450109.668  
G11  22066910.253                3 
G13  20321877.964                3 
G05  21744748.360                3 
S29  37307563.627   196052569.933  
S28  37712846.841   198182335.593  
> 2026 04 15 09 43 25.0010000  0 11                     
G15  21368290.542   112291116.053  
G20  20656555.956   108550936.570  
E03  24757173.582   130099838.462  
G29  22411929.416   117775474.862  
J02  36812602.379   193451485.647  
G11  22067254.787                3 
G13  20321903.291                3 
G24  25758501.583                3 
G05  21745040.167                2 
S29  37307738.627   196053489.361  
S28  37713022.130   198183257.549  
> 2026 04 15 09 43 26.0010000  0 10                     
G15  21368033.679   112289765.844  
G20  20656615.843   108551250.357  
E03  24756949.429   130098661.005  
G29  22411740.089   117774478.101  
J02  36812864.434                  
G11  22067597.323                3 
G13  20321931.924                3 
G05  21745329.658                2 
S29  37307913.537   196054408.760  
S28  37713197.637   198184179.530  
> 2026 04 15 09 43 27.0010000  0 10                     
G15  21367776.759   112288416.009  
G20  20656675.521   108551564.634  
E03  24756725.456   130097483.772  
G29  22411550.438   117773481.796  
J02  36813126.443                  
G11  22067939.699                3 
G13  20321961.035                3 
G05  21745624.355                2 
S29  37308088.463   196055328.050  
S28  37713372.984   198185101.452  
> 2026 04 15 09 43 28.0010000  0 10                     
G15  21367519.878   112287066.628  
G20  20656735.549   108551879.489  
E03  24756501.402   130096306.816  
G29  22411360.787   117772485.988  
J02  36813388.329   193455613.374  
G11  22068282.698                3 
G13  20321991.240                3 
G05  21745915.333                2 
S29  37308263.394   196056247.314  
S28  37713548.326   198186023.296  
> 2026 04 15 09 43 29.0010000  0 10                     
G15  21367263.159   112285717.661  
G20  20656795.707   108552194.874  
E03  24756277.327   130095130.116  
G29  22411171.409   117771490.666  
J02  36813650.210   193456989.231  
G11  22068627.149                3 
G13  20322021.785                3 
G05  21746206.854                2 
S29  37308438.366   196057166.508  
S28  37713723.506   198186945.011  
> 2026 04 15 09 43 30.0010000  0 10                     
G15  21367006.478   112284369.171  
G20  20656855.805   108552510.868  
E03  24756053.792   130093953.724  
G29  22410982.189   117770495.946  
J02  36813911.883   193458365.119  
G11  22068972.180                3 
G13  20322050.174                3 
G05  21746499.184                2 
S29  37308613.420   196058085.697  
S28  37713898.989   198187866.795  
> 2026 04 15 09 43 31.0010000  0 10                     
G15  21366749.863   112283021.089  
G20  20656915.880   108552827.395  
E03  24755829.834   130092777.587  
G29  22410793.025   117769501.654  
J02  36814174.051   193459740.913  
G11  22069318.159                3 
G13  20322079.261                3 
G05  21746790.893                1 
S29  37308788.239   196059004.802  
S28  37714074.454   198188788.500  
> 2026 04 15 09 43 32.0010000  0 10                     
G15  21366493.454   112281673.367  
G20  20656976.057   108553144.429  
E03  24755606.319   130091601.666  
G29  22410603.740   117768507.842  
J02  36814435.973   193461116.635  
G11  22069663.219                3 
G13  20322115.068                3 
G05  21747082.047                  
S29  37308963.284   196059923.812  
S28  37714249.843   198189710.058  
> 2026 04 15 09 43 33.0010000  0 10                     
G15  21366237.097   112280326.112  
G20  20657036.637   108553462.034  
E03  24755382.478   130090426.034  
G29  22410414.616   117767514.512  
J02  36814697.760   193462492.367  
G11  22070005.281                2 
G13  20322151.559                3 
G05  21747369.671                  
S29  37309138.452   196060842.784  
S28  37714425.342   198190631.497  
> 2026 04 15 09 43 34.0010000  0 10                     
G15  21365980.806   112278979.252  
G20  20657097.024   108553780.172  
E03  24755158.528   130089250.636  
G29  22410225.841   117766521.672  
J02  36814959.707   193463868.004  
G11  22070343.854                2 
G13  20322188.704                3 
G05  21747659.202                  
S29  37309312.952   196061761.680  
S28  37714600.793   198191552.865  
> 2026 04 15 09 43 35.0010000  0 10                     
G15  21365724.659   112277632.720  
G20  20657157.862   108554098.761  
E03  24754934.949   130088075.421  
G29  22410036.988   117765529.234  
J02  36815221.390   193465243.562  
G11  22070687.629                2 
G13  20322223.495                3 
G05  21747950.553                  
S29  37309487.795   196062680.418  
S28  37714776.241   198192474.109  
> 2026 04 15 09 43 36.0010000  0  9                     
G15  21365468.324   112276286.530  
G20  20657218.532   108554417.829  
E03  24754711.401   130086900.378  
G29  22409848.288   117764537.210  
G11  22071031.031                2 
G13  20322256.939                3 
G05  21748241.069                  
S29  37309662.507   196063599.031  
S28  37714951.614   198193395.219  
> 2026 04 15 09 43 37.0010000  0 10                     
G15  21365212.256   112274940.861  
G20  20657279.624   108554737.531  
E03  24754488.100   130085725.694  
G29  22409659.708   117763545.769  
J02  36815753.042                3 
G11  22071377.537                1 
G13  20322289.977                3 
G05  21748529.510                  
S29  37309837.415   196064517.675  
S28  37715126.895   198194316.318  
> 2026 04 15 09 43 38.0010000  0 10                     
G15  21364956.099   112273595.698  
G20  20657340.654   108555057.869  
E03  24754264.300   130084551.355  
G29  22409471.190   117762554.898  
J02  36816008.461   193469462.9663 
G11  22071721.759                  
G13  20322323.005                3 
G05  21748820.615                  
S29  37310012.376   196065436.352  
S28  37715302.120   198195237.520  
> 2026 04 15 09 43 39.0010000  0 10                     
G15  21364699.998   112272251.036  
G20  20657401.709   108555378.857  
E03  24754040.997   130083377.387  
G29  22409282.649   117761564.647  
J02  36816268.063   193470838.5922 
G11  22072065.449                  
G13  20322354.261                2 
G05  21749110.521                  
S29  37310187.257   196066355.059  
S28  37715477.534   198196158.719  
> 2026 04 15 09 43 40.0010000  0 10                     
G15  21364444.293   112270906.836  
G20  20657462.973   108555700.424  
E03  24753817.585   130082203.714  
G29  22409094.451   117760574.909  
J02  36816528.891   193472214.1532 
G11  22072407.736                3 
G13  20322386.767                2 
G05  21749397.922                  
S29  37310361.966   196067273.734  
S28  37715652.855   198197079.895  
> 2026 04 15 09 43 41.0010000  0 10                     
G15  21364188.518   112269563.147  
G20  20657524.039   108556022.619  
E03  24753594.390   130081030.374  
G29  22408906.330   117759585.757  
J02  36816790.910   193473589.7922 
G11  22072751.600                2 
G13  20322417.215                2 
G05  21749686.418                  
S29  37310536.926   196068192.456  
S28  37715828.135   198198001.038  
> 2026 04 15 09 43 42.0010000  0 10                     
G15  21363932.966   112268219.975  
G20  20657585.590   108556345.469  
E03  24753371.246   130079857.405  
G29  22408718.145   117758597.215  
J02  36817052.562   193474965.4432 
G11  22073096.574                2 
G13  20322448.345                2 
G05  21749976.002                3 
S29  37310711.939   196069111.210  
S28  37716003.388   198198922.269  
> 2026 04 15 09 43 43.0010000  0 10                     
G15  21363677.573   112266877.383  
G20  20657647.261   108556669.031  
E03  24753148.404   130078684.863  
G29  22408529.911   117757609.301  
J02  36817314.427   193476341.3222 
G11  22073439.999                  
G13  20322481.579                1 
G05  21750265.451                3 
S29  37310886.656   196070030.065  
S28  37716178.630   198199843.685  
> 2026 04 15 09 43 44.0010000  0 10                     
G15  21363422.147   112265535.294  
G20  20657708.892   108556993.228  
E03  24752925.007   130077512.657  
G29  22408341.853   117756621.961  
J02  36817576.260   193477717.157  
G11  22073784.659   115998518.4021 
G13  20322512.068                  
G05  21750552.909                3 
S29  37311061.362   196070948.932  
S28  37716353.597   198200765.151  
> 2026 04 15 09 43 45.0010000  0 10                     
G15  21363166.585   112264193.563  
G20  20657770.794   108557317.896  
E03  24752701.909   130076340.661  
G29  22408153.810   117755635.064  
J02  36817838.140   193479092.965  
G11  22074129.381                3 
G13  20322544.877                  
G05  21750841.076                3 
S29  37311236.125   196071867.685  
S28  37716528.705   198201686.472  
> 2026 04 15 09 43 46.0010000  0 10                     
G15  21362911.318   112262852.337  
G20  20657832.803   108557643.216  
E03  24752478.856   130075169.001  
G29  22407965.857   117754648.744  
J02  36818099.727   193480468.778  
G11  22074473.571   116002142.1923 
G13  20322575.462                  
G05  21751133.143                3 
S29  37311410.801   196072786.476  
S28  37716704.159   198202607.752  
> 2026 04 15 09 43 47.0010000  0 10                     
G15  21362656.322   112261511.555  
G20  20657894.607   108557969.108  
E03  24752255.682   130073997.635  
G29  22407778.225   117753662.954  
J02  36818361.386   193481844.582  
G11  22074817.736                2 
G13  20322606.494                  
G05  21751426.815                3 
S29  37311585.477   196073705.213  
S28  37716879.148   198203529.060  
> 2026 04 15 09 43 48.0010000  0 10                     
G15  21362401.105   112260171.309  
G20  20657956.640   108558295.643  
E03  24752033.039   130072826.644  
G29  22407590.390   117752677.727  
J02  36818623.110   193483220.448  
G11  22075162.072   116005762.4122 
G13  20322640.834                  
G05  21751719.919                2 
S29  37311760.289   196074624.016  
S28  37717054.374   198204450.417  
> 2026 04 15 09 43 49.0010000  0 10                     
G15  21362146.361   112258831.519  
G20  20658019.093   108558622.775  
E03  24751810.329   130071655.952  
G29  22407402.626   117751693.045  
J02  36818884.633   193484596.355  
G11  22075506.705                  
G13  20322673.461                  
G05  21752014.278                2 
S29  37311934.884   196075542.786  
S28  37717229.658   198205371.737  
> 2026 04 15 09 43 50.0010000  0  9                     
G15  21361891.377   112257492.221  
G20  20658081.291   108558950.517  
E03  24751587.657   130070485.582  
G29  22407215.272   117750708.931  
G11  22075850.781                  
G13  20322705.027   106796512.3481 
G05  21752310.641                2 
S29  37312110.066   196076461.564  
S28  37717404.963   198206293.049  
> 2026 04 15 09 43 51.0010000  0 10                     
G15  21361636.606   112256153.408  
G20  20658143.824   108559278.879  
E03  24751364.856   130069315.546  
G29  22407027.683   117749725.391  
J02  36819415.242                3 
G11  22076195.262                  
G13  20322731.328                  
G05  21752607.480                2 
S29  37312285.265   196077380.358  
S28  37717580.022   198207214.335  
> 2026 04 15 09 43 52.0010000  0 10                     
G15  21361381.826   112254815.117  
G20  20658206.259   108559607.869  
E03  24751142.299   130068145.860  
G29  22406840.389   117748742.456  
J02  36819670.615   193488708.1863 
G11  22076540.245   116013007.010  
G13  20322758.274                  
G05  21752902.523   114312189.5393 
S29  37312460.008   196078299.170  
S28  37717755.223   198208135.635  
> 2026 04 15 09 43 53.0010000  0 10                     
G15  21361127.326   112253477.161  
G20  20658268.963   108559937.367  
E03  24750919.526   130066976.389  
G29  22406653.410   117747759.981  
J02  36819932.075   193490084.1092 
G11  22076885.074                  
G13  20322788.351                  
G05  21753196.027                2 
S29  37312634.977   196079217.867  
S28  37717930.356   198209056.942  
> 2026 04 15 09 43 54.0010000  0  9                     
G15  21360873.106   112252139.758  
G20  20658331.543   108560267.513  
E03  24750696.985   130065807.289  
G29  22406466.208   117746777.992  
G11  22077229.776   116016631.181  
G13  20322821.275                  
G05  21753480.908   114315245.6362 
S29  37312809.618   196080136.625  
S28  37718105.837   198209978.226  
> 2026 04 15 09 43 55.0010000  0 10                     
G15  21360618.837   112250802.895  
G20  20658394.309   108560598.322  
E03  24750474.808   130064638.546  
G29  22406279.192   117745796.684  
J02  36820451.479   193492777.6293 
G11  22077574.623                  
G13  20322855.290                  
G05  21753770.816   114316773.896  
S29  37312984.446   196081055.452  
S28  37718281.361   198210899.567  
> 2026 04 15 09 43 56.0010000  0 10                     
G15  21360364.366   112249466.475  
G20  20658457.476   108560929.719  
E03  24750252.712   130063470.128  
G29  22406092.246   117744815.915  
J02  36820718.417   193494153.6622 
G11  22077919.865   116020257.052  
G13  20322887.845                  
G05  21754064.531   114318302.214  
S29  37313159.237   196081974.239  
S28  37718456.529   198211820.963  
> 2026 04 15 09 43 57.0010000  0 10                     
G15  21360110.124   112248130.507  
G20  20658520.623   108561261.670  
E03  24750030.086   130062301.963  
G29  22405905.405   117743835.596  
J02  36820977.503   193495529.6732 
G11  22078265.139   116022070.387  
G13  20322919.245                  
G05  21754354.734   114319830.640  
S29  37313334.029   196082892.968  
S28  37718631.857   198212742.238  
> 2026 04 15 09 43 58.0010000  0 10                     
G15  21359855.992   112246795.070  
G20  20658583.919   108561594.292  
E03  24749807.739   130061134.192  
G29  22405718.853   117742855.942  
J02  36821239.865   193496905.8092 
G11  22078610.235                  
G13  20322952.912                  
G05  21754645.366   114321359.137  
S29  37313508.667   196083811.777  
S28  37718807.047   198213663.511  
> 2026 04 15 09 43 59.0010000  0 10                     
G15  21359601.873   112245460.242  
G20  20658647.271   108561927.641  
E03  24749585.831   130059966.863  
G29  22405532.793   117741876.953  
J02  36821501.721   193498282.0412 
G11  22078955.479                  
G13  20322985.348                  
G05  21754936.004   114322887.930  
S29  37313683.725   196084730.694  
S28  37718982.517   198214584.944  
> 2026 04 15 09 44 00.0010000  0 10                     
G15  21359347.878   112244125.874  
G20  20658711.173   108562261.579  
E03  24749363.981   130058799.835  
G29  22405346.365   117740898.457  
J02  36821763.878   193499658.2992 
G11  22079300.833                  
G13  20323019.268                  
G05  21755226.881   114324416.831  
S29  37313858.473   196085649.571  
S28  37719157.812   198215506.415  
> 2026 04 15 09 44 01.0010000  0 11                     
G15  21359093.989   112242791.961  
G20  20658774.674   108562596.096  
E03  24749142.116   130057633.107  
G29  22405160.109   117739920.520  
J02  36822025.991   193501034.5732 
E36  25793291.816                3 
G11  22079646.487                  
G13  20323052.731                  
G05  21755517.557                  
S29  37314033.490   196086568.460  
S28  37719333.297   198216427.811  
> 2026 04 15 09 44 02.0010000  0 11                     
G15  21358840.344   112241458.617  
G20  20658838.401   108562931.326  
E03  24748919.849   130056466.793  
G29  22404974.006   117738943.238  
J02  36822288.174   193502410.4631 
E36  25793577.253                3 
G11  22079991.774   116031143.071  
G13  20323086.693                  
G05  21755808.690   114327474.870  
S29  37314208.462   196087487.438  
S28  37719508.584   198217349.317  
> 2026 04 15 09 44 03.0010000  0 10                     
G15  21358586.470   112240125.720  
G20  20658902.358   108563267.110  
E03  24748698.116   130055300.767  
G29  22404788.280   117737966.449  
J02  36822550.344   193503786.799  
G11  22080337.003   116032958.660  
G13  20323120.698   106798774.072  
G05  21756099.717   114329004.037  
S29  37314383.593   196088406.360  
S28  37719683.784   198218270.781  
> 2026 04 15 09 44 04.0010000  0 10                     
G15  21358333.088   112238793.213  
G20  20658966.317   108563603.399  
E03  24748476.015   130054134.945  
G29  22404602.813   117736990.113  
J02  36822812.527   193505163.033  
G11  22080682.772                  
G13  20323154.902   106798952.838  
G05  21756390.725   114330533.180  
S29  37314558.345   196089325.190  
S28  37719859.308   198219192.065  
> 2026 04 15 09 44 05.0010000  0 10                     
G15  21358079.707   112237461.184  
G20  20659030.513   108563940.291  
E03  24748253.836   130052969.429  
G29  22404417.242   117736014.320  
J02  36823074.711   193506539.346  
G11  22081028.367                  
G13  20323189.406   106799132.408  
G05  21756681.549   114332062.487  
S29  37314733.179   196090244.014  
S28  37720034.815   198220113.348  
> 2026 04 15 09 44 06.0010000  0 10                     
G15  21357826.386   112236129.721  
G20  20659094.608   108564277.888  
E03  24748032.411   130051804.370  
G29  22404232.137   117735039.173  
J02  36823336.669   193507915.717  
G11  22081373.850                  
G13  20323223.887                  
G05  21756972.574   114333591.883  
S29  37314908.250   196091162.934  
S28  37720210.259   198221034.750  
> 2026 04 15 09 44 07.0010000  0 10                     
G15  21357573.366   112234798.689  
G20  20659159.042   108564616.041  
E03  24747810.585   130050639.554  
G29  22404046.888   117734064.533  
J02  36823598.812   193509292.130  
G11  22081719.419                  
G13  20323258.270   106799493.653  
G05  21757263.294   114335121.363  
S29  37315083.213   196092081.791  
S28  37720385.597   198221956.075  
> 2026 04 15 09 44 08.0010000  0 10                     
G15  21357319.873   112233468.076  
G20  20659223.457   108564954.740  
E03  24747589.230   130049475.012  
G29  22403861.468   117733090.398  
J02  36823860.988   193510668.443  
G11  22082065.092                  
G13  20323292.943                  
G05  21757554.023   114336650.924  
S29  37315257.869   196093000.587  
S28  37720560.798   198222877.342  
> 2026 04 15 09 44 09.0010000  0 11                     
G15  21357066.834   112232137.975  
G20  20659288.100   108565294.068  
E03  24747367.456   130048310.806  
G29  22403675.990   117732116.827  
J02  36824122.929                  
E36  25795554.132                3 
G11  22082410.725                  
G13  20323327.331                  
G05  21757844.657   114338180.554  
S29  37315432.904   196093919.419  
S28  37720736.022   198223798.640  
> 2026 04 15 09 44 10.0010000  0 11                     
G15  21356813.793   112230808.537  
G20  20659352.581   108565634.200  
E03  24747145.748   130047147.118  
G29  22403490.860   117731144.022  
J02  36824385.458   193513421.420  
E36  25795838.343                3 
G11  22082756.462                  
G13  20323362.065                  
G05  21758135.384   114339710.455  
S29  37315607.492   196094838.419  
S28  37720911.407   198224720.130  
> 2026 04 15 09 44 11.0010000  0 11                     
G15  21356560.860   112229479.491  
G20  20659417.446   108565974.846  
E03  24746924.969   130045983.664  
G29  22403305.751   117730171.668  
J02  36824647.629   193514797.977  
E36  25796125.806                3 
G11  22083102.441                  
G13  20323396.756                  
G05  21758426.101                  
S29  37315782.372   196095757.342  
S28  37721086.719   198225641.582  
> 2026 04 15 09 44 12.0010000  0 11                     
G15  21356308.000   112228150.860  
G20  20659482.491   108566316.019  
E03  24746703.447   130044820.454  
G29  22403120.920   117729199.797  
J02  36824909.706                  
E36  25796411.776                3 
G11  22083448.417                  
G13  20323431.701                  
G05  21758716.784   114342770.333  
S29  37315957.223   196096676.189  
S28  37721262.138   198226563.033  
> 2026 04 15 09 44 13.0010000  0 11                     
G15  21356055.298   112226822.763  
G20  20659547.830   108566657.862  
E03  24746481.714   130043657.622  
G29  22402936.000   117728228.558  
J02  36825172.005                  
E36  25796697.534                3 
G11  22083794.455                  
G13  20323466.767                  
G05  21759007.359   114344300.432  
S29  37316132.140   196097595.107  
S28  37721437.628   198227484.534  
> 2026 04 15 09 44 14.0010000  0 11                     
G15  21355802.583   112225495.193  
G20  20659612.970   108567000.365  
E03  24746260.392   130042495.179  
G29  22402751.338   117727257.929  
J02  36825434.151   193518927.635  
E36  25796981.960                3 
G11  22084140.752                  
G13  20323501.792                  
G05  21759298.011   114345830.646  
S29  37316306.894   196098514.050  
S28  37721613.119   198228406.044  
> 2026 04 15 09 44 15.0010000  0 10                     
G15  21355549.970   112224167.943  
G20  20659678.164   108567343.308  
E03  24746039.136   130041332.872  
G29  22402566.759   117726287.648  
J02  36825696.312                  
G11  22084487.111                  
G13  20323536.853                  
G05  21759588.721   114347360.877  
S29  37316481.587   196099432.829  
S28  37721788.212   198229327.404  
> 2026 04 15 09 44 16.0010000  0 10                     
G15  21355297.430   112222841.263  
G20  20659743.531   108567686.938  
E03  24745817.921   130040170.977  
G29  22402382.572   117725318.016  
J02  36825958.382                  
G11  22084833.560                  
G13  20323572.384                  
G05  21759879.708                  
S29  37316656.312   196100351.708  
S28  37721963.580   198230248.794  
> 2026 04 15 09 44 17.0010000  0 10                     
G15  21355044.980   112221515.024  
G20  20659808.809   108568031.131  
E03  24745597.246   130039009.368  
G29  22402197.987   117724348.901  
J02  36826220.331                  
G11  22085179.847                  
G13  20323607.923                  
G05  21760170.797   114350421.640  
S29  37316831.341   196101270.529  
S28  37722139.143   198231170.199  
> 2026 04 15 09 44 18.0010000  0 10                     
G15  21354792.783   112220189.335  
G20  20659874.487   108568375.988  
E03  24745376.547   130037848.132  
G29  22402013.828   117723380.406  
J02  36826482.348                  
G11  22085526.290                  
G13  20323643.765                  
G05  21760461.847   114351952.211  
S29  37317006.418   196102189.408  
S28  37722314.755   198232091.670  
> 2026 04 15 09 44 19.0010000  0 10                     
G15  21354540.664   112218864.155  
G20  20659940.394   108568721.492  
E03  24745155.607   130036687.261  
G29  22401829.781   117722412.510  
J02  36826744.397                  
G11  22085873.193                  
G13  20323679.761                  
G05  21760753.093   114353482.939  
S29  37317181.387   196103108.335  
S28  37722489.968   198233013.090  
> 2026 04 15 09 44 20.0010000  0 10                     
G15  21354288.279   112217539.523  
G20  20660006.063   108569067.658  
E03  24744934.754   130035526.780  
G29  22401645.873   117721445.181  
J02  36827005.930                  
G11  22086219.622                  
G13  20323715.818                  
G05  21761044.517   114355013.792  
S29  37317356.097   196104027.311  
S28  37722665.500   198233934.584  
> 2026 04 15 09 44 21.0010000  0  9                     
G15  21354036.514   112216215.463  
G20  20660071.839   108569414.612  
E03  24744714.251   130034366.715  
G29  22401462.184   117720478.453  
J02  36827267.622                  
G13  20323752.172                  
G05  21761336.259   114356544.813  
S29  37317530.937   196104946.376  
S28  37722840.850   198234856.010  
> 2026 04 15 09 44 22.0010000  0  9                     
G15  21353784.802   112214891.832  
G20  20660137.788   108569761.947  
E03  24744493.259   130033206.869  
G29  22401278.865   117719512.268  
J02  36827524.972                3 
G13  20323788.298                3 
G05  21761628.134                  
S29  37317706.048   196105865.430  
S28  37723016.406   198235777.617  
> 2026 04 15 09 44 23.0010000  0 11                     
G15  21353532.893   112213568.619  
G20  20660204.116   108570109.972  
E03  24744272.572   130032047.361  
G29  22401095.446   117718546.722  
J02  36827789.489                2 
E36  25799522.431                  
G11  22087263.088                3 
G13  20323823.432                3 
G05  21761919.788                  
S29  37317880.821   196106784.407  
S28  37723191.668   198236699.122  
> 2026 04 15 09 44 24.0010000  0 10                     
G15  21353281.273   112212245.915  
G20  20660270.531   108570458.564  
E03  24744052.330   130030888.147  
G29  22400912.186   117717581.593  
E36  25799807.264                  
G11  22087609.220                3 
G13  20323857.676                2 
G05  21762211.206                  
S29  37318055.690   196107703.415  
S28  37723366.810   198237620.551  
> 2026 04 15 09 44 25.0010000  0 11                     
G15  21353029.918   112210923.518  
G20  20660336.705   108570807.691  
E03  24743832.265   130029729.125  
G29  22400729.035   117716617.045  
J02  36828305.187                3 
E36  25800090.440                  
G11  22087955.513                3 
G13  20323893.609                3 
G05  21762502.892                  
S29  37318230.646   196108622.198  
S28  37723542.074   198238541.982  
> 2026 04 15 09 44 26.0010000  0 10                     
G15  21352778.562   112209601.773  
G20  20660403.374   108571157.488  
E03  24743611.581   130028570.540  
G29  22400545.678   117715653.127  
E36  25800369.380                  
G11  22088301.982                3 
G13  20323929.690                3 
G05  21762794.942                  
S29  37318405.476   196109541.165  
S28  37723717.748   198239463.424  
> 2026 04 15 09 44 27.0010000  0 11                     
G15  21352527.222   112208280.670  
G20  20660469.956   108571508.159  
E03  24743391.338   130027412.504  
G29  22400362.587   117714689.869  
J02  36828841.006                3 
E36  25800655.846                  
G11  22088649.439                3 
G13  20323968.466                3 
G05  21763086.691                3 
S29  37318580.472   196110460.373  
S28  37723893.304   198240385.159  
> 2026 04 15 09 44 28.0010000  0 10                     
G15  21352275.664   112206959.981  
G20  20660536.711   108571859.174  
E03  24743170.687   130026254.697  
G29  22400179.339                  
E36  25800940.230                  
G11  22088995.185                2 
G13  20324008.430                3 
G05  21763383.728                2 
S29  37318755.409   196111379.359  
S28  37724068.816   198241306.578  
> 2026 04 15 09 44 29.0010000  0 10                     
G15  21352023.904   112205639.302  
G20  20660603.595   108572210.416  
E03  24742950.327   130025096.667  
G29  22399996.419   117712764.518  
E36  25801225.154                  
G11  22089343.311                3 
G13  20324045.653                3 
G05  21763677.820                3 
S29  37318930.080   196112297.942  
S28  37724243.938   198242227.661  
> 2026 04 15 09 44 30.0010000  0 10                     
G15  21351772.746   112204319.623  
G20  20660670.648   108572562.900  
E03  24742729.433   130023939.643  
G29  22399813.617   117711802.750  
E36  25801508.733                  
G11  22089691.060                3 
G13  20324082.342                2 
G05  21763974.386                2 
S29  37319104.946   196113217.056  
S28  37724419.811   198243149.152  
> 2026 04 15 09 44 31.0010000  0  9                     
G15  21351521.282   112203000.189  
G20  20660738.329   108572915.647  
E03  24742509.345   130022782.993  
G29  22399631.166                  
G11  22090037.222                3 
G13  20324117.698                3 
G05  21764263.615                2 
S29  37319279.467   196114135.999  
S28  37724595.528   198244070.766  
> 2026 04 15 09 44 32.0010000  0 10                     
G15  21351271.004   112201684.618  
G20  20660806.096   108573271.996  
E03  24742288.370   130021629.663  
G29  22399448.154   117709884.171  
J02  36829964.114                2 
G11  22090389.168                2 
G13  20324164.958                2 
G05  21764550.444                3 
S29  37319455.111   196115058.241  
S28  37724771.722   198244995.332  
> 2026 04 15 09 44 33.0010000  0  9                     
G06  25110870.810                3 
G15  21351021.307   112200369.898  
G20  20660874.258   108573629.607  
E03  24742070.913   130020477.087  
G29  22399266.097   117708927.467  
G11  22090738.710   116087614.7993 
G13  20324197.256                3 
S29  37319630.512   196115980.835  
S28  37724947.518   198245920.550  
> 2026 04 15 09 44 34.0010000  0 10                     
G15  21350771.156   112199055.783  
G20  20660942.695   108573988.087  
E03  24741852.009   130019325.013  
G29  22399083.893   117707971.525  
E36  25802649.537                1 
G11  22091087.704                3 
G13  20324239.868                3 
G05  21765126.520                3 
S29  37319806.303   196116903.513  
S28  37725122.996   198246845.653  
> 2026 04 15 09 44 35.0010000  0 11                     
G15  21350520.333   112197739.598  
G20  20661010.382   108574344.780  
E03  24741633.012   130018170.979  
G29  22398900.542   117707013.641  
J02  36830853.319                3 
E36  25802919.148                3 
G11  22091437.398                3 
G13  20324280.979   106804817.3073 
G05  21765420.583                3 
S29  37319981.163   196117823.735  
S28  37725298.729   198247768.430  
> 2026 04 15 09 44 36.0010000  0 11                     
G15  21350270.673   112196425.616  
G20  20661078.347   108574703.523  
E03  24741413.284   130017018.527  
G29  22398718.291   117706058.205  
J02  36831118.147   193548819.8873 
E36  25803216.008                3 
G11  22091787.004                2 
G13  20324316.842                2 
G05  21765720.397                3 
S29  37320157.618   196118745.660  
S28  37725475.050   198248693.003  
> 2026 04 15 09 44 37.0010000  0 11                     
G15  21350020.617   112195112.342  
G20  20661146.435   108575063.175  
E03  24741193.683   130015866.729  
G29  22398536.373   117705103.400  
J02  36831350.854   193550200.1402 
E36  25803500.486                  
G11  22092133.552                2 
G13  20324356.016                2 
G05  21766021.274                3 
S29  37320333.316   196119667.795  
S28  37725651.260   198249617.699  
> 2026 04 15 09 44 38.0010000  0 10                     
G15  21349771.270   112193799.511  
G20  20661214.644   108575423.414  
E03  24740974.115   130014715.243  
G29  22398355.331   117704149.156  
J02  36831722.270   193551579.7911 
E36  25803782.258                  
G11  22092484.598                2 
G13  20324393.405                2 
S29  37320508.808   196120589.917  
S28  37725827.395   198250542.337  
> 2026 04 15 09 44 39.0010000  0 10                     
G15  21349521.856   112192486.665  
G20  20661283.346   108575783.725  
E03  24740754.749   130013563.438  
G29  22398173.482   117703195.205  
J02  36831968.638   193552959.822  
E36  25804074.829                  
G11  22092829.195                2 
G13  20324435.504                2 
S29  37320684.459   196121511.470  
S28  37726003.376   198251466.429  
> 2026 04 15 09 44 40.0010000  0 10                     
G15  21349272.087   112191174.628  
G20  20661352.063   108576145.062  
E03  24740535.566   130012412.387  
G29  22397991.805   117702241.911  
J02  36832237.636   193554339.956  
E36  25804356.127                  
G11  22093177.520                2 
G13  20324470.837                2 
S29  37320859.764   196122433.395  
S28  37726179.719   198252390.860  
> 2026 04 15 09 44 41.0010000  0 10                     
G15  21349022.454   112189863.001  
G20  20661420.783   108576506.722  
E03  24740316.477   130011261.691  
G29  22397810.643   117701288.677  
E36  25804640.491                1 
G11  22093524.582   116102269.6313 
G13  20324510.743                2 
G05  21767192.518                2 
S29  37321034.878   196123355.228  
S28  37726355.753   198253315.173  
> 2026 04 15 09 44 42.0010000  0 12                     
G15  21348773.037   112188552.537  
G20  20661490.083   108576869.848  
E03  24740098.360   130010112.109  
G29  22397629.633   117700336.350  
J02  36832815.720                3 
E30  27914190.707                  
E36  25804925.130   135605797.0571 
G11  22093870.836                2 
G13  20324548.586                3 
G05  21767471.563                3 
S29  37321210.491   196124277.670  
S28  37726531.880   198254240.045  
> 2026 04 15 09 44 43.0010000  0 12                     
G15  21348523.408   112187242.226  
G20  20661559.427   108577233.856  
E03  24739880.286   130008962.924  
G29  22397448.900   117699383.893  
J02  36833082.430                2 
E30  27914663.565                3 
E36  25805209.059                1 
G11  22094220.133                  
G13  20324589.456                3 
G05  21767755.500                3 
S29  37321385.214   196125199.759  
S28  37726707.888                  
> 2026 04 15 09 44 44.0010000  0 11                     
G15  21348274.202   112185932.814  
G20  20661629.181   108577598.808  
E03  24739661.761   130007814.691  
G29  22397267.761   117698431.623  
J02  36833308.007                3 
E30  27915137.701                  
E36  25805493.702                1 
G11  22094572.306                3 
G13  20324629.264                2 
G05  21768035.596                2 
S29  37321560.772   196126122.274  
> 2026 04 15 09 44 45.0010000  0 11                     
G15  21348025.178   112184623.784  
G20  20661698.910   108577964.285  
E03  24739443.074   130006666.836  
G29  22397087.029   117697479.370  
J02  36833515.432                3 
E30  27915600.587                  
E36  25805782.178                  
G11  22094916.041                2 
G13  20324667.496                2 
G05  21768328.397                2 
S29  37321736.404   196127044.589  
> 2026 04 15 09 44 46.0010000  0 10                     
G15  21347776.307   112183315.472  
G20  20661768.561   108578330.672  
E03  24739225.053   130005520.265  
G29  22396905.556   117696526.387  
J02  36833646.886                3 
E36  25806067.315                  
G11  22095265.730   116111404.9103 
G13  20324709.811                3 
G05  21768621.757   114394878.6003 
S29  37321912.059                3 
> 2026 04 15 09 44 47.0010000  0 11                     
G15  21347527.105   112182006.328  
G20  20661838.026   108578695.939  
E03  24739007.142   130004372.689  
G29  22396723.744   117695572.175  
J02  36833938.207                2 
E30  27916551.925                1 
E36  25806352.105                3 
G11  22095613.964   116113234.3233 
G13  20324749.319                3 
G05  21768914.483   114396417.1293 
S29  37322087.185   196128891.9953 
> 2026 04 15 09 44 48.0010000  0 11                     
G15  21347278.147   112180698.551  
G20  20661907.722   108579062.496  
E03  24738788.718                  
G29  22396542.134   117694618.987  
J02  36834302.587                3 
E30  27917009.636                1 
E36  25806635.485                3 
G11  22095961.848                2 
G13  20324790.957                2 
G05  21769204.616   114397941.9192 
S29  37322262.553   196129814.0302 
> 2026 04 15 09 44 49.0010000  0 12                     
G15  21347029.128   112179390.840  
G20  20661977.870   108579429.586  
E03  24738570.551   130002080.449  
G29  22396361.648                3 
J02  36834498.920                3 
E30  27917492.397                3 
E36  25806917.723                  
G11  22096314.582   116116916.5682 
G13  20324831.774                2 
E34  24781929.176                  
G05  21769496.677   114399477.0022 
S29  37322438.330   196130735.9082 
> 2026 04 15 09 44 50.0010000  0 12                     
G15  21346780.548                  
G20  20662047.722   108579797.302  
E03  24738352.519                  
G29  22396180.513   117692721.7843 
J02  36834857.483                3 
E30  27917956.061                3 
E36  25807203.282                1 
G11  22096663.092   116118750.3692 
G13  20324870.873                2 
E34  24781908.057   130229799.594  
G05  21769788.877   114401009.7352 
S29  37322614.039                2 
> 2026 04 15 09 44 51.0010000  0 12                     
G15  21346531.785   112176778.209  
G20  20662118.185   108580165.663  
E03  24738135.383   129999789.824  
G29  22395999.028   117691770.6752 
J02  36835123.685                2 
E30  27918434.551                  
E36  25807490.842   135619265.5161 
G11  22097010.611   116120584.8452 
G13  20324912.574                2 
E34  24781886.084   130229683.255  
G05  21770079.432   114402542.8602 
S29  37322789.507                2 
> 2026 04 15 09 44 52.0010000  0 11                     
G15  21346283.270   112175473.337  
G20  20662188.382   108580535.119  
E03  24737917.584                  
G29  22395818.716   117690820.5532 
J02  36835392.083                2 
E30  27918900.320                1 
G11  22097357.377                3 
G13  20324953.795   106808358.7423 
E34  24781865.497   130229567.332  
G05  21770371.478   114404076.3552 
S29  37322965.032                3 
> 2026 04 15 09 44 53.0010000  0 11                     
G15  21346034.842   112174168.502  
G20  20662258.436   108580904.823  
E03  24737699.820                3 
G29  22395637.281   117689870.7392 
E30  27919375.756                3 
G11  22097709.525                2 
G13  20324995.133   106808575.6932 
E09  27726974.308                3 
E34  24781841.518   130229451.035  
G05  21770663.729   114405609.7212 
S29  37323141.031   196134429.3543 
> 2026 04 15 09 44 54.0010000  0 12                     
G15  21345786.698                  
G20  20662328.796   108581274.832  
E03  24737483.822                  
G29  22395455.105   117688921.2962 
J02  36835939.387                3 
E30  27919846.501                3 
E36  25808343.753                1 
G11  22098061.999                2 
G13  20325036.744                2 
E34  24781819.217   130229334.150  
G05  21770954.987   114407142.5362 
S29  37323317.129                2 
> 2026 04 15 09 44 55.0010000  0 13                     
G15  21345538.624                  
G20  20662399.177   108581644.927  
E03  24737261.982                  
G29  22395276.177   117687972.308  
J02  36836193.189                2 
E30  27920319.198                  
E36  25808630.366                  
G11  22098408.789                2 
G13  20325078.053   106809010.422  
E09  27728281.833                3 
E34  24781797.133   130229216.602  
G05  21771246.499   114408674.3541 
S29  37323492.709                2 
> 2026 04 15 09 44 56.0010000  0 13                     
G06  25124589.054                3 
G15  21345287.866   112170244.7503 
G20  20662469.992   108582015.442  
E03  24737046.911                1 
G29  22395096.353   117687023.357  
J02  36836453.708                2 
E30  27920797.819                3 
E36  25808907.426                1 
G11  22098758.196                2 
G13  20325119.486   106809228.416  
E34  24781775.039   130229098.731  
G05  21771540.405                3 
S29  37323668.134                2 
> 2026 04 15 09 44 57.0010000  0 13                     
G15  21345042.620                2 
G20  20662540.177   108582386.169  
E03  24736826.691                1 
G29  22394917.476                3 
J02  36836721.153                3 
E30  27921264.142                  
E36  25809199.868                1 
G11  22099105.827                3 
G13  20325160.929                3 
E09  27729583.801                  
E34  24781752.803   130228980.162  
G05  21771831.760                2 
S29  37323843.835                3 
> 2026 04 15 09 44 58.0010000  0 12                     
G15  21344794.516                2 
G20  20662611.067   108582758.469  
E03  24736615.580                3 
G29  22394736.873   117685139.2313 
E30  27921742.282                  
E36  25809483.896                3 
G11  22099456.117                2 
G13  20325204.639                2 
E09  27730237.678                1 
E34  24781730.586   130228863.153  
G05  21772123.915                2 
S29  37324019.982                2 
> 2026 04 15 09 44 59.0010000  0 12                     
G15  21344547.478   112166338.9462 
G20  20662682.482   108583131.292  
E03  24736396.654                1 
G29  22394556.379                3 
E30  27922215.768                3 
E36  25809767.748                3 
G11  22099805.021                2 
G13  20325245.675                3 
E09  27730894.710                  
E34  24781708.157   130228745.730  
G05  21772416.007   114414814.0773 
S29  37324195.579                2 
> 2026 04 15 09 45 00.0010000  0 11                     
G15  21344300.315   112165038.5432 
G20  20662753.795   108583504.566  
E03  24736178.145                  
G29  22394377.474                3 
E36  25810060.770                  
G11  22100149.826                3 
G13  20325289.140                3 
E09  27731553.832   145730290.2661 
E34  24781686.155   130228627.897  
G05  21772706.646   114416346.6932 
S29  37324370.977                2 
> 2026 04 15 09 45 01.0010000  0 12                     
G15  21344053.051   112163739.152  
G20  20662824.729   108583878.789  
E03  24735959.414                  
G29  22394195.498                3 
J02  36837678.542                3 
E36  25810343.264                3 
G11  22100503.261                3 
G13  20325332.380                2 
E09  27732212.618   145733744.884  
E34  24781663.780   130228511.029  
G05  21772997.471   114417880.209  
S29  37324546.744   196141816.9683 
> 2026 04 15 09 45 02.0010000  0 11                     
G15  21343805.408   112162440.536  
G20  20662895.502   108584253.543  
E03  24735736.998                  
G29  22394014.875                3 
E36  25810616.335                3 
G11  22100853.644                2 
G13  20325370.885                3 
E09  27732866.440                1 
E34  24781641.071   130228394.130  
G05  21773289.235   114419413.991  
S29  37324722.723   196142741.4322 
> 2026 04 15 09 45 03.0010000  0 11                     
G15  21343558.733                  
G20  20662966.470   108584628.700  
E03  24735529.264                1 
G29  22393836.999                3 
J02  36838281.969                3 
E36  25810881.902                3 
G11  22101204.047                3 
E09  27733527.491                  
E34  24781618.698   130228277.752  
G05  21773580.941   114420947.956  
S29  37324898.862                2 
> 2026 04 15 09 45 04.0010000  0 11                     
G15  21343311.589                  
G20  20663038.154   108585004.898  
E03  24735308.477                  
G29  22393657.690                3 
E36  25811171.808                3 
G11  22101554.862                2 
G13  20325461.069                3 
E09  27734186.626                1 
E34  24781594.488                1 
G05  21773873.766   114422483.475  
S29  37325074.519   196144591.2522 
> 2026 04 15 09 45 05.0010000  0 13                     
G15  21343064.680                3 
G20  20663110.012   108585381.405  
E03  24735092.588                  
G29  22393479.215                3 
J02  36838807.815                3 
E30  27925071.095                3 
E36  25811450.223                3 
G11  22101904.012                3 
G13  20325504.237                2 
E09  27734840.997                3 
E34  24781573.915                1 
G05  21774165.890   114424018.541  
S29  37325250.114                2 
> 2026 04 15 09 45 06.0010000  0 12                     
G15  21342818.756                2 
G20  20663181.601   108585758.531  
E03  24734872.891   129982662.1081 
G29  22393309.779                3 
J02  36839069.948                2 
E36  25811737.403                3 
G11  22102259.314                2 
G13  20325545.219                3 
E09  27735500.445                3 
E34  24781554.374   130227934.3381 
G05  21774458.235                3 
S29  37325425.980   196146441.0462 
> 2026 04 15 09 45 07.0010000  0 12                     
G15  21342572.093                3 
G20  20663253.585   108586135.210  
E03  24734663.279                3 
G29  22393129.158                3 
J02  36839330.155   193591998.6223 
E36  25812030.217                3 
G11  22102613.377                3 
G13  20325586.905                2 
E09  27736162.605                3 
E34  24781529.693   130227817.434  
G05  21774747.240                2 
S29  37325601.755                3 
> 2026 04 15 09 45 08.0010000  0 11                     
G15  21342324.200                2 
G20  20663325.459   108586512.419  
E03  24734444.477                  
J02  36839590.124                3 
E36  25812312.890                3 
G11  22102964.057                3 
G13  20325623.982                2 
E09  27736823.698                3 
E34  24781509.564   130227701.233  
G05  21775039.410                2 
S29  37325777.175                2 
> 2026 04 15 09 45 09.0010000  0 11                     
G15  21342075.826                2 
G20  20663397.109   108586890.016  
J02  36839853.589                3 
E30  27926964.319                3 
E36  25812598.149                3 
G11  22103309.320                2 
G13  20325674.157                3 
E09  27737474.684                1 
E34  24781486.054   130227585.274  
G05  21775333.401   114430138.8943 
S29  37325952.902                2 
> 2026 04 15 09 45 10.0010000  0  9                     
G15  21341828.803                2 
G20  20663468.985   108587267.943  
J02  36840117.808                3 
G11  22103662.225                3 
G13  20325711.728                2 
E09  27738130.450                3 
E34  24781462.772   130227468.916  
G05  21775624.838   114431674.1432 
S29  37326128.552                2 
> 2026 04 15 09 45 11.0010000  0 10                     
G15  21341583.894                2 
G20  20663541.278   108587646.889  
E05  24131545.328   126812126.517  
J02  36840385.020                2 
G11  22104012.527                3 
G13  20325754.981   106812589.2943 
E09  27738790.497                3 
E34  24781443.562   130227353.299  
G05  21775916.667   114433209.8622 
S29  37326304.615                2 
> 2026 04 15 09 45 12.0010000  0  9                     
G15  21341338.293   112149487.5323 
G20  20663613.395   108588026.426  
E05  24131824.633   126813597.360  
G11  22104360.616                3 
G13  20325797.542   106812816.1012 
E09  27739447.815                  
E34  24781420.076   130227237.431  
G05  21776212.012   114434745.6242 
S29  37326479.973                3 
> 2026 04 15 09 45 13.0010000  0 10                     
G15  21341092.322   112148192.8801 
G20  20663685.819   108588406.380  
E05  24132103.513   126815068.462  
J02  36841295.728                3 
G11  22104710.028                3 
G13  20325843.075   106813043.767  
E09  27740103.185                1 
E34  24781397.646   130227121.572  
G05  21776503.114   114436280.9801 
S29  37326655.850   196152899.8703 
> 2026 04 15 09 45 14.0010000  0 10                     
G15  21340846.122   112146898.919  
G20  20663758.222   108588786.869  
E05  24132385.341   126816540.074  
J02  36841554.089                2 
G11  22105033.822                3 
G13  20325889.309                3 
E09  27740762.793                  
E34  24781375.356   130227005.625  
G05  21776794.949   114437816.759  
S29  37326831.519                2 
> 2026 04 15 09 45 15.0010000  0  8                     
G15  21340599.947                3 
G20  20663830.733   108589167.453  
E05  24132665.282   126818011.543  
G13  20325929.854   106813481.6543 
E09  27741418.410                  
E34  24781354.069   130226889.091  
G05  21777086.804   114439352.005  
S29  37327007.453                2 
> 2026 04 15 09 45 16.0010000  0  7                     
G15  21340351.715                2 
G20  20663903.333   108589548.418  
E05  24132945.214   126819483.210  
E09  27742085.641                1 
E34  24781332.465   130226772.361  
G05  21777378.675   114440886.945  
S29  37327183.448                3 
> 2026 04 15 09 45 17.0010000  0  8                     
G15  21340108.367                3 
G20  20663975.804   108589930.155  
E05  24133225.264   126820955.435  
G11  22106066.348                3 
G13  20326017.074                2 
E34  24781309.470   130226655.885  
G05  21777671.231   114442422.384  
S29  37327359.337                2 
> 2026 04 15 09 45 18.0010000  0  8                     
G15  21339862.295                3 
G20  20664048.658   108590312.476  
E05  24133505.295   126822427.920  
G11  22106412.202                3 
G13  20326060.768   106814170.0552 
E34  24781288.015   130226539.299  
G05  21777963.170   114443957.727  
S29  37327535.028                2 
> 2026 04 15 09 45 19.0010000  0  8                     
G15  21339616.570                3 
G20  20664121.633   108590695.314  
E05  24133785.228   126823900.924  
G11  22106763.268                3 
G13  20326104.477                  
E34  24781270.297                1 
G05  21778255.170   114445492.935  
S29  37327710.745                3 
> 2026 04 15 09 45 20.0010000  0  8                     
G15  21339372.315                2 
G20  20664194.285   108591078.269  
E05  24134065.643   126825373.760  
G11  22107112.747                3 
G13  20326143.330                3 
E34  24781242.059                  
G05  21778547.399   114447028.139  
S29  37327885.903                2 
> 2026 04 15 09 45 21.0010000  0  7                     
G15  21339124.875                3 
G20  20664267.066   108591461.917  
E05  24134346.541   126826847.569  
G11  22107463.226                3 
E34  24781219.976   130226220.0621 
G05  21778839.765   114448563.683  
S29  37328061.462                3 
> 2026 04 15 09 45 22.0010000  0  6                     
G15  21338882.814                3 
G20  20664340.163   108591845.975  
E05  24134627.098   126828321.344  
E34  24781198.689   130226103.382  
G05  21779131.466   114450098.893  
S29  37328236.830                3 
> 2026 04 15 09 45 23.0010000  0  9                     
G15  21338637.201                3 
G20  20664413.147   108592230.279  
E05  24134906.953   126829795.018  
G11  22108158.786                3 
G13  20326281.566                2 
E09  27746685.357                  
E34  24781178.494   130225986.113  
G05  21779423.684   114451633.930  
S29  37328411.982                2 
> 2026 04 15 09 45 24.0010000  0  8                     
G15  21338396.289                2 
G20  20664486.442   108592615.195  
E05  24135187.948   126831269.275  
G11  22108505.577                3 
G13  20326324.048                2 
E34  24781151.603   130225868.848  
G05  21779715.861   114453169.006  
S29  37328588.670                3 
> 2026 04 15 09 45 25.0010000  0  7                     
G15  21338149.422                3 
G20  20664559.761   108593001.029  
E05  24135468.289   126832744.198  
G11  22108851.717                3 
G13  20326366.899                3 
E34  24781133.021                  
G05  21780008.037   114454704.007  
> 2026 04 15 09 45 26.0010000  0  7                     
G15  21337903.428                3 
G20  20664633.431   108593387.489  
E05  24135749.069   126834219.288  
G11  22109202.318                2 
G13  20326416.463                3 
E34  24781109.975   130225634.788  
G05  21780300.822   114456239.197  
> 2026 04 15 09 45 27.0010000  0  8                     
G15  21337656.459                3 
G20  20664707.025   108593773.836  
E05  24136030.388   126835694.426  
G11  22109552.873                3 
G13  20326462.740                3 
E09  27749316.717                3 
E34  24781086.733   130225517.219  
G05  21780593.654                3 
> 2026 04 15 09 45 28.0010000  0  9                     
G29  22389428.277                3 
G15  21337411.413                2 
G20  20664780.692   108594160.882  
E05  24136310.976   126837170.231  
E36  25817951.837                  
G11  22109905.706                2 
G13  20326505.641                3 
E34  24781065.065                  
G05  21780890.281                2 
> 2026 04 15 09 45 29.0010000  0  9                     
G29  22389248.567                2 
G15  21337165.383                3 
G20  20664854.731   108594548.641  
E05  24136591.788   126838646.348  
E36  25818225.065                3 
G11  22110248.898                3 
G13  20326553.753                3 
E34  24781043.249   130225282.739  
G05  21781181.483   114460862.9163 
> 2026 04 15 09 45 30.0010000  0  7                     
G20  20664928.664   108594936.586  
E05  24136872.839   126840122.778  
E36  25818511.523                  
G11  22110593.499                2 
G13  20326599.115                3 
E34  24781021.110   130225165.644  
G05  21781469.089                2 
> 2026 04 15 09 45 31.0010000  0  8                     
G15  21336677.255                2 
G20  20665002.895   108595325.146  
E05  24137153.871   126841599.251  
E36  25818798.992                1 
G11  22110942.713                3 
G13  20326641.703                2 
E34  24780998.658   130225048.234  
G05  21781762.129                  
> 2026 04 15 09 45 32.0010000  0  8                     
G15  21336430.534                3 
G20  20665076.773   108595713.989  
E05  24137434.495   126843076.199  
E36  25819085.837                1 
G11  22111289.050                2 
G13  20326687.572                3 
E34  24780976.423   130224930.701  
G05  21782054.514                  
> 2026 04 15 09 45 33.0010000  0  8                     
G15  21336183.275                3 
G20  20665150.719   108596103.572  
E05  24137716.306   126844553.836  
E36  25819367.468                  
G11  22111638.206                3 
G13  20326732.779                2 
E34  24780955.290   130224813.620  
G05  21782342.623   114466982.2733 
> 2026 04 15 09 45 34.0010000  0  8                     
G15  21335940.360                3 
G20  20665224.784   108596493.705  
E05  24137997.201   126846031.903  
E36  25819650.870                3 
G11  22111985.301                2 
G13  20326779.101                3 
E34  24780932.649   130224696.285  
G05  21782636.605   114468517.9032 
> 2026 04 15 09 45 35.0010000  0 10                     
G29  22388194.700                3 
G15  21335696.337                2 
G20  20665299.527   108596884.092  
E05  24138278.170   126847509.914  
E36  25819941.977                3 
G11  22112335.697                3 
G13  20326822.795                3 
E09  27754578.062                  
E34  24780909.651                  
G05  21782929.575   114470053.2372 
> 2026 04 15 09 45 36.0010000  0  8                     
G29  22388012.398                3 
G15  21335470.915                3 
G20  20665374.030   108597274.978  
E05  24138560.102   126848987.898  
E36  25820225.800                  
G11  22112685.589                2 
E34  24780887.863   130224460.537  
G05  21783222.336                2 
> 2026 04 15 09 45 37.0010000  0  8                     
G29  22387833.751                2 
G15  21335220.504                3 
G20  20665448.507   108597666.097  
E05  24138841.068   126850466.266  
E36  25820508.061                  
G13  20326915.130                3 
E34  24780865.039   130224342.496  
G05  21783515.056                3 
> 2026 04 15 09 45 38.0010000  0  8                     
G15  21334972.037                3 
G20  20665522.904   108598057.635  
E05  24139122.199   126851944.963  
E36  25820792.370                  
G11  22113383.284                3 
G13  20326958.804                2 
E34  24780842.280   130224224.589  
G05  21783806.708                2 
> 2026 04 15 09 45 39.0010000  0  9                     
G29  22387471.859                3 
G15  21334724.325                3 
G20  20665597.461   108598449.785  
E05  24139404.121   126853423.977  
E36  25821073.842   135690677.2331 
G11  22113738.219                2 
G13  20327005.118                3 
E34  24780820.632                3 
G05  21784102.438                3 
> 2026 04 15 09 45 40.0010000  0 10                     
G29  22387297.195                3 
G15  21334480.236                3 
G20  20665671.966   108598841.962  
E05  24139685.332   126854903.083  
J02  36849331.436                3 
E36  25821356.879   135692172.786  
G11  22114086.600                3 
G13  20327052.722                2 
E34  24780798.245                  
G05  21784392.727                3 
> 2026 04 15 09 45 41.0010000  0  9                     
G29  22387115.106                3 
G15  21334235.928                3 
G20  20665746.732   108599234.742  
E05  24139967.239   126856382.718  
E36  25821645.105                  
G11  22114435.073                3 
G13  20327097.638                3 
E34  24780779.163                  
G05  21784686.071   114479297.0213 
> 2026 04 15 09 45 42.0010000  0 10                     
G29  22386939.355                2 
G15  21333994.349                3 
G20  20665821.717   108599628.061  
E05  24140249.228   126857862.550  
E30  27942603.246                3 
E36  25821928.042                  
G11  22114787.071                2 
G13  20327147.876                2 
E34  24780751.070                1 
G05  21784973.628   114480830.7332 
> 2026 04 15 09 45 43.0010000  0  9                     
G29  22386765.151                3 
G15  21333752.200                3 
G20  20665896.668   108600021.727  
E05  24140531.033   126859342.573  
E36  25822212.719   135696659.909  
G11  22115137.292                2 
G13  20327195.168                3 
E34  24780732.592   130223628.0561 
G05  21785261.149                3 
> 2026 04 15 09 45 44.0010000  0  8                     
G29  22386589.833                2 
G20  20665971.550   108600415.565  
E05  24140812.090   126860822.600  
E36  25822497.778   135698155.684  
G11  22115488.248   116217674.3373 
G13  20327238.691                3 
E34  24780706.554                  
G05  21785558.972   114483854.3793 
> 2026 04 15 09 45 45.0010000  0  8                     
G29  22386413.645                3 
G20  20666046.682   108600810.495  
E05  24141094.077                  
E36  25822782.600   135699651.634  
G11  22115838.090   116219512.6392 
G13  20327282.362                3 
E34  24780685.424                  
G05  21785851.854   114485388.9912 
> 2026 04 15 09 45 46.0010000  0  8                     
G29  22386239.911                2 
G20  20666122.067   108601205.455  
E05  24141375.863   126863784.171  
E36  25823067.425   135701147.491  
G11  22116189.483   116221356.0942 
G13  20327331.481                2 
E34  24780659.841   130223270.907  
G05  21786148.102   114486923.1042 
> 2026 04 15 09 45 47.0010000  0  9                     
G29  22386060.656                2 
G15  21332782.704                3 
G20  20666197.282   108601600.841  
E05  24141657.141   126865265.199  
E36  25823351.895                  
G11  22116540.155   116223199.9912 
G13  20327378.728                3 
E34  24780639.129                  
G05  21786439.531                2 
> 2026 04 15 09 45 48.0010000  0  7                     
G29  22385885.801                3 
G20  20666273.387                3 
E05  24141938.958   126866747.424  
E36  25823636.949                  
G11  22116893.163   116225044.8142 
E34  24780612.218                  
G05  21786722.322   114489998.4723 
> 2026 04 15 09 45 49.0010000  0  8                     
G29  22385716.187                2 
G15  21332292.985                3 
G20  20666348.852                1 
E05  24142221.080   126868229.805  
E36  25823921.875                  
G11  22117242.897   116226889.564  
E34  24780592.862   130222914.564  
G05  21787015.272                3 
> 2026 04 15 09 45 50.0010000  0  8                     
G29  22385537.228                3 
G20  20666424.298                3 
E05  24142503.323   126869712.416  
E36  25824211.023                3 
G11  22117593.428   116228734.454  
G13  20327520.402                2 
E34  24780569.111   130222795.617  
G05  21787308.759                2 
> 2026 04 15 09 45 51.0010000  0  9                     
G29  22385359.584                2 
G15  21331804.600                3 
G20  20666499.375   108603190.7543 
E05  24142785.636   126871195.429  
E36  25824491.174                  
G11  22117943.963   116230579.695  
G13  20327567.337                2 
E34  24780545.323                  
G05  21787604.934                2 
> 2026 04 15 09 45 52.0010000  0 10                     
G29  22385188.155                3 
G15  21331558.906                2 
G20  20666574.841   108603589.1982 
E05  24143068.206   126872678.443  
E30  27947325.633                3 
E36  25824774.351                  
G11  22118295.591   116232425.146  
G13  20327612.761                2 
E34  24780524.510                  
G05  21787896.721   114496142.0743 
> 2026 04 15 09 45 53.0010000  0 10                     
G29  22385012.885                3 
G15  21331315.191                3 
G20  20666651.085   108603988.1142 
E05  24143350.733   126874162.006  
J02  36851212.295                3 
E36  25825059.692                  
G11  22118646.683   116234270.681  
G13  20327657.953                2 
E34  24780502.987                  
G05  21788186.840   114497676.3142 
> 2026 04 15 09 45 54.0010000  0 12                     
G29  22384844.263                3 
G15  21331071.082                3 
G20  20666726.946   108604387.2522 
E05  24143632.376   126875645.657  
J02  36851481.934                3 
E30  27948270.022                3 
E36  25825343.042                  
G11  22118997.942                3 
G13  20327711.229                2 
E09  27767078.761                3 
E34  24780482.442                1 
G05  21788483.073                3 
> 2026 04 15 09 45 55.0010000  0 12                     
G29  22384674.080                3 
G15  21330829.153                3 
G20  20666802.987   108604787.347  
E05  24143915.503                3 
J02  36851732.582                3 
E30  27948745.926                3 
E36  25825629.935                  
G11  22119349.550                2 
G13  20327755.983                3 
E09  27767731.149                3 
E34  24780460.756                3 
G05  21788774.290                2 
> 2026 04 15 09 45 56.0010000  0 11                     
G29  22384495.491                2 
G15  21330589.941                3 
G20  20666880.015                3 
E05  24144199.655                  
J02  36851988.110                3 
E30  27949216.485                3 
E36  25825921.207                1 
G11  22119700.944                2 
G13  20327808.081                3 
E34  24780434.421                  
G05  21789062.854                3 
> 2026 04 15 09 45 57.0010000  0 11                     
G29  22384321.724                2 
G15  21330339.020                2 
G20  20666957.661                2 
E05  24144477.500                  
E30  27949698.012                3 
E36  25826199.999                  
G11  22120051.845   116241656.3913 
G13  20327853.085                2 
E09  27769050.683                3 
E34  24780410.701                  
G05  21789353.837                2 
> 2026 04 15 09 45 58.0010000  0 12                     
G29  22384153.364                3 
G15  21330100.647                3 
G20  20667032.914                2 
E05  24144760.883                1 
J02  36852504.936                3 
E30  27950164.864                3 
E36  25826486.774                  
G11  22120403.160                2 
G13  20327899.172                2 
E09  27769698.042                  
E34  24780387.411                  
G05  21789649.017                2 
> 2026 04 15 09 45 59.0010000  0 12                     
G29  22383986.963                3 
G15  21329853.055                3 
G20  20667109.365                3 
E05  24145045.356                  
J02  36852769.420                2 
E30  27950636.208                3 
E36  25826772.069                3 
G11  22120755.281                3 
G13  20327947.569   106824094.2313 
E09  27770360.993                  
E34  24780362.137                  
G05  21789937.228                3 
> 2026 04 15 09 46 00.0010000  0 12                     
G29  22383802.894                2 
G15  21329608.406                3 
G20  20667189.113                2 
E05  24145329.240                  
J02  36853027.670                3 
E30  27951114.092                3 
E36  25827063.205                3 
G11  22121109.426                2 
G13  20327995.596   106824347.7952 
E09  27771015.277                  
E34  24780338.882                1 
G05  21790230.488                2 
> 2026 04 15 09 46 01.0010000  0 11                     
G29  22383638.838                3 
G15  21329366.689                3 
G20  20667264.196                3 
E05  24145608.191   126886033.0611 
J02  36853285.083                3 
E30  27951584.389                3 
G11  22121457.399                3 
G13  20328043.338   106824601.2671 
E09  27771678.865                  
E34  24780320.987                  
G05  21790523.710                3 
> 2026 04 15 09 46 02.0010000  0 13                     
G29  22383458.765                2 
G15  21329126.823                3 
G20  20667337.822                2 
E03  24722783.884                  
E05  24145893.109   126887520.008  
J02  36853543.658                2 
E30  27952056.321                3 
E36  25827621.315                3 
G11  22121813.770                3 
G13  20328091.777   106824855.609  
E09  27772344.635                3 
E34  24780299.581                1 
G05  21790816.669                2 
> 2026 04 15 09 46 03.0010000  0 13                     
G29  22383279.367                3 
G15  21328885.519                3 
G20  20667416.607                3 
E03  24722566.877                  
E05  24146179.951   126889007.394  
J02  36853799.121                2 
E30  27952525.175                3 
E36  25827910.675                3 
G11  22122165.908                2 
G13  20328141.118   106825110.574  
E09  27773001.435                3 
E34  24780275.623                3 
G05  21791109.582                2 
> 2026 04 15 09 46 04.0010000  0 13                     
G29  22383108.966                2 
G15  21328639.769                3 
G20  20667492.762                2 
E03  24722353.483                  
E05  24146460.404                3 
J02  36854058.802   193669417.3343 
E30  27953006.440                3 
E36  25828202.740                3 
G11  22122524.383                3 
G13  20328189.344   106825365.644  
E09  27773659.577                3 
E34  24780252.445                  
G05  21791404.408                2 
> 2026 04 15 09 46 05.0010000  0 12                     
G29  22382935.504                3 
G15  21328399.414                3 
G20  20667567.082                2 
E03  24722138.882                1 
E05  24146744.347                  
J02  36854316.033   193670786.5072 
E36  25828486.354                3 
G11  22122873.567                3 
G13  20328238.084   106825622.127  
E09  27774315.900                3 
E34  24780231.564                  
G05  21791697.772                2 
> 2026 04 15 09 46 06.0010000  0 11                     
G29  22382762.174                2 
G15  21328154.759                3 
G20  20667645.542   108609217.8953 
E03  24721910.807                  
E05  24147031.101                1 
J02  36854577.206   193672155.6092 
E36  25828780.998                3 
G11  22123224.099                2 
G13  20328286.906   106825878.951  
E34  24780209.105                  
G05  21791987.814                2 
> 2026 04 15 09 46 07.0010000  0 11                     
G29  22382586.167                3 
G15  21327912.648                3 
G20  20667722.317   108609622.2251 
E03  24721698.412                  
E05  24147311.400                  
J02  36854837.809   193673523.7992 
E36  25829059.402                3 
G11  22123578.579                3 
G13  20328335.922   106826136.354  
E34  24780187.047                1 
G05  21792279.832                1 
> 2026 04 15 09 46 08.0010000  0 12                     
G29  22382415.256                3 
G15  21327667.585                3 
G20  20667798.787   108610027.434  
E03  24721473.558                1 
E05  24147593.118   126896484.8551 
J02  36855099.934   193674891.519  
E36  25829353.331                3 
G11  22123930.772                3 
G13  20328385.716   106826395.303  
E34  24780169.316                3 
G05  21792573.065                  
S37  36963408.458   194244021.5072 
> 2026 04 15 09 46 09.0010000  0 12                     
G29  22382251.727                3 
G15  21327422.453                2 
G20  20667875.910   108610433.279  
E03  24721272.090                1 
E05  24147884.329                  
J02  36855359.162   193676259.313  
E36  25829640.305                3 
G11  22124278.534                3 
G13  20328434.679   106826654.152  
E34  24780145.988                3 
G05  21792865.731                  
S37  36963581.117   194244930.391  
> 2026 04 15 09 46 10.0010000  0 12                     
G29  22382076.448                2 
G15  21327181.290                3 
G20  20667953.271   108610839.492  
E03  24721040.278                  
E05  24148168.308                3 
J02  36855619.715                  
E36  25829920.328                3 
G11  22124636.333                2 
G13  20328484.024   106826913.317  
E34  24780123.600                  
G05  21793158.616                  
S37  36963753.848   194245838.885  
> 2026 04 15 09 46 11.0010000  0 12                     
G29  22381902.803                3 
G15  21326930.409                3 
G20  20668030.865   108611246.833  
E03  24720829.777                  
E05  24148449.701                  
J02  36855880.150                  
E36  25830207.685                3 
G11  22124987.917                3 
G13  20328533.664   106827173.947  
E34  24780099.744                3 
G05  21793451.734                3 
S37  36963926.786   194246748.131  
> 2026 04 15 09 46 12.0010000  0 12                     
G29  22381726.287                3 
G15  21326686.018                2 
G20  20668108.668   108611654.027  
E03  24720606.664   129907677.4501 
E05  24148735.438                  
J02  36856140.295   193680362.640  
E36  25830491.648                3 
G11  22125340.525                3 
G13  20328583.056   106827434.461  
E34  24780079.469                3 
G05  21793744.482                2 
S37  36964099.861   194247656.671  
> 2026 04 15 09 46 13.0010000  0 11                     
G15  21326442.226   112071209.6243 
G20  20668186.606   108612062.047  
E03  24720400.543   129906544.890  
E05  24149013.045                3 
J02  36856400.601   193681730.210  
E36  25830778.131                3 
G11  22125695.275                3 
G13  20328632.769   106827695.863  
E34  24780058.245                  
G05  21794037.505                3 
S37  36964272.601   194248565.321  
> 2026 04 15 09 46 14.0010000  0 12                     
G29  22381385.333                3 
G15  21326200.552                3 
G20  20668264.246   108612470.373  
E03  24720178.120   129905411.810  
E05  24149300.732                3 
J02  36856660.486   193683097.194  
E36  25831067.210                3 
G11  22126048.118                3 
G13  20328682.470   106827957.825  
E34  24780037.106                1 
G05  21794328.627                2 
S37  36964445.367   194249473.385  
> 2026 04 15 09 46 15.0010000  0 11                     
G29  22381219.082                3 
G15  21325958.410                3 
G20  20668342.102   108612879.176  
E03  24719964.350   129904279.076  
E05  24149578.439                  
J02  36856920.726   193684464.350  
G11  22126400.629                3 
G13  20328732.387   106828220.380  
E34  24780015.855                3 
G05  21794626.017                3 
S37  36964618.326   194250381.923  
> 2026 04 15 09 46 16.0010000  0 11                     
G29  22381052.465                3 
G15  21325710.446                3 
G20  20668419.784   108613288.565  
E03  24719749.747                  
E05  24149864.785   126908385.4991 
J02  36857180.671   193685831.450  
G11  22126751.303                2 
G13  20328782.326   106828483.739  
E34  24779988.658                3 
G05  21794918.048                2 
S37  36964791.162   194251290.264  
> 2026 04 15 09 46 17.0010000  0 10                     
G15  21325457.787                2 
G20  20668498.004   108613698.179  
E03  24719533.449   129902013.712  
E05  24150150.844   126909880.330  
J02  36857440.761   193687198.233  
G11  22127098.065   116278684.5313 
G13  20328832.724   106828747.481  
E34  24779967.931                3 
G05  21795210.892                3 
S37  36964964.152   194252198.387  
> 2026 04 15 09 46 18.0010000  0 11                     
G15  21325211.927                2 
G20  20668576.014   108614108.340  
E03  24719317.284   129900881.199  
E05  24150437.398   126911375.821  
J02  36857700.679                  
E36  25832194.268                  
G11  22127448.937   116280528.4492 
G13  20328882.839   106829011.934  
E34  24779948.182                  
G05  21795501.723                3 
S37  36965136.997   194253106.601  
> 2026 04 15 09 46 19.0010000  0 11                     
G15  21324969.550   112063483.6641 
G20  20668654.213   108614519.047  
E03  24719102.011   129899748.994  
E05  24150721.708   126912871.948  
J02  36857960.954                  
E36  25832477.330                  
G11  22127802.208   116282385.2252 
G13  20328933.731   106829277.274  
E34  24779924.286                  
G05  21795796.416                2 
S37  36965309.955   194254015.122  
> 2026 04 15 09 46 20.0010000  0 11                     
G15  21324726.023   112062208.009  
G20  20668732.234   108614930.828  
E03  24718886.663   129898617.694  
E05  24151004.497   126914369.167  
J02  36858223.416                3 
E36  25832765.518   135752106.1281 
G11  22128155.038   116284243.3462 
G13  20328984.477   106829544.062  
E34  24779901.003                  
G05  21796086.799                3 
S37  36965483.018   194254924.553  
> 2026 04 15 09 46 21.0010000  0 12                     
G15  21324481.715   112060931.647  
G20  20668810.528   108615342.440  
E03  24718670.945   129897485.959  
E05  24151290.578   126915866.546  
J02  36858462.077                3 
E32  26677280.193   140190052.632  
E36  25833049.878   135753611.811  
G11  22128508.692                2 
G13  20329035.180   106829810.858  
E34  24779878.476                  
G05  21796380.425                2 
S37  36965655.919   194255833.595  
> 2026 04 15 09 46 22.0010000  0 12                     
G15  21324241.033                  
G20  20668889.283   108615755.395  
E03  24718456.179   129896355.488  
E05  24151575.385                  
J02  36858741.187   193693991.9003 
E32  26676928.640   140188189.380  
E36  25833338.454                  
G11  22128862.695   116287961.9772 
G13  20329086.082   106830079.269  
E34  24779857.069                  
G05  21796671.408                3 
S37  36965828.868   194256743.698  
> 2026 04 15 09 46 23.0010000  0 12                     
G15  21323998.212   112058381.441  
G20  20668967.624   108616168.608  
E03  24718241.023   129895225.120  
E05  24151860.814                  
J02  36859002.840                3 
E32  26676573.980                  
E36  25833636.169                3 
G11  22129216.092   116289822.1182 
G13  20329137.257   106830348.082  
E34  24779834.742                  
G05  21796964.017                2 
S37  36966002.199   194257653.700  
> 2026 04 15 09 46 24.0010000  0 11                     
G15  21323755.687   112057106.196  
G20  20669046.282   108616582.291  
E03  24718025.783   129894094.760  
E05  24152146.294                  
J02  36859277.706   193696735.8123 
E32  26676218.651                  
E36  25833912.802                3 
G11  22129570.220                2 
G13  20329188.486   106830617.680  
E34  24779813.878                3 
S37  36966175.255   194258563.649  
> 2026 04 15 09 46 25.0010000  0 12                     
G15  21323513.566   112055832.131  
G20  20669125.626   108616996.991  
E03  24717811.015   129892965.495  
E05  24152431.967                  
J02  36859523.261                3 
E32  26675863.468                3 
E36  25834202.628                3 
G11  22129924.860   116293544.794  
G13  20329240.276   106830888.371  
E34  24779789.774                  
G05  21797550.874                2 
S37  36966348.286   194259474.383  
> 2026 04 15 09 46 26.0010000  0 13                     
G15  21323271.453   112054558.020  
G20  20669204.567   108617411.958  
E03  24717596.171   129891836.054  
E05  24152717.642   126923363.917  
J02  36859803.407                3 
E32  26675511.385                3 
E36  25834484.104                  
G11  22130279.685                  
G13  20329292.101   106831159.482  
E34  24779769.094   130218556.7931 
G05  21797843.340                3 
S29  37339398.613   196219863.7343 
S37  36966521.716   194260384.665  
> 2026 04 15 09 46 27.0010000  0 13                     
G15  21323028.822   112053284.386  
G20  20669283.368   108617827.277  
E03  24717382.478   129890707.038  
E05  24153003.074   126924864.435  
J02  36860055.816                2 
E32  26675164.275                  
E36  25834771.937                3 
G11  22130633.877                  
G13  20329343.825   106831431.139  
E34  24779748.127                  
G05  21798136.433                3 
S29  37339571.317   196220771.8572 
S37  36966694.933   194261294.942  
> 2026 04 15 09 46 28.0010000  0 12                     
G15  21322786.670   112052011.748  
G20  20669362.150   108618243.826  
E03  24717164.124                1 
E05  24153288.738   126926365.770  
J02  36860305.425                2 
E36  25835058.121                  
G11  22130988.392                  
G13  20329395.369   106831703.819  
E34  24779727.032                3 
G05  21798428.230                3 
S29  37339744.429   196221680.364  
S37  36966868.164   194262205.651  
> 2026 04 15 09 46 29.0010000  0 10                     
G15  21322544.379   112050738.885  
G20  20669441.799   108618660.131  
E03  24716954.672                1 
E05  24153574.030   126927866.756  
J02  36860580.441                3 
E36  25835349.435                  
G11  22131342.954                  
G13  20329447.325   106831976.379  
S29  37339916.920   196222588.334  
S37  36967041.527   194263115.147  
> 2026 04 15 09 46 30.0010000  0 10                     
G15  21322302.424   112049467.099  
G20  20669521.122   108619077.600  
E03  24716738.301                  
E05  24153860.022   126929368.942  
J02  36860834.494                2 
E36  25835636.695                1 
G11  22131697.556                  
G13  20329499.124   106832250.110  
S29  37340090.063   196223496.601  
S37  36967214.503   194264024.776  
> 2026 04 15 09 46 31.0010000  0 10                     
G15  21322060.578   112048195.543  
G20  20669600.698   108619495.246  
E03  24716523.339                  
E05  24154145.619   126930870.569  
J02  36861082.359                3 
E36  25835919.111                1 
G11  22132052.251   116304718.086  
G13  20329551.465   106832523.827  
S29  37340262.721   196224404.931  
S37  36967387.455   194264933.411  
> 2026 04 15 09 46 32.0010000  0 10                     
G15  21321818.361                  
G20  20669680.119   108619912.757  
E03  24716308.068   129885078.2281 
E05  24154431.150   126932372.015  
J02  36861367.071                2 
E36  25836205.476                  
G11  22132406.628   116306579.513  
G13  20329603.364   106832797.418  
S29  37340435.456                  
S37  36967560.075   194265841.178  
> 2026 04 15 09 46 33.0010000  0 11                     
G15  21321576.662   112045652.470  
G20  20669759.478   108620330.642  
E03  24716091.232                  
E05  24154717.270   126933873.660  
J02  36861615.612                2 
E30  27966925.002                3 
E36  25836490.856                  
G11  22132760.806                  
G13  20329655.402   106833071.628  
S29  37340608.323   196226219.979  
S37  36967732.944   194266749.002  
> 2026 04 15 09 46 34.0010000  0 11                     
G15  21321334.873   112044382.055  
G20  20669839.509   108620749.807  
E03  24715879.048   129882821.267  
E05  24155002.984   126935376.182  
J02  36861868.835                2 
E30  27967394.978                3 
E36  25836788.289                  
G11  22133115.065   116310303.269  
G13  20329707.645   106833347.071  
S29  37340780.982   196227128.079  
S37  36967905.715   194267657.330  
> 2026 04 15 09 46 35.0010000  0 11                     
G15  21321093.161   112043112.340  
G20  20669919.573   108621169.317  
E03  24715663.744   129881693.626  
E05  24155289.186   126936878.868  
J02  36862146.479                3 
E30  27967873.376                3 
E36  25837060.178                  
G11  22133469.460   116312165.647  
G13  20329760.244   106833622.989  
S29  37340953.890   196228036.029  
S37  36968078.777   194268565.662  
> 2026 04 15 09 46 36.0010000  0 10                     
G15  21320851.430   112041842.646  
G20  20669999.775   108621589.231  
E03  24715448.425                  
E05  24155575.294   126938382.003  
E30  27968358.168                3 
E36  25837358.852                  
G11  22133823.973   116314028.419  
G13  20329812.945   106833899.494  
S29  37341126.902   196228943.696  
S37  36968251.699   194269473.508  
> 2026 04 15 09 46 37.0010000  0 12                     
G06  25184837.368                3 
G15  21320609.837   112040573.241  
G20  20670079.832   108622009.562  
E03  24715233.499   129879437.924  
E05  24155861.483   126939885.225  
J02  36862682.617                2 
E36  25837641.978                  
G11  22134178.088   116315891.003  
G13  20329865.228   106834176.257  
S29  37341299.771   196229851.105  
S28  37746682.279   198360153.5133 
S37  36968424.290   194270380.846  
> 2026 04 15 09 46 38.0010000  0 13                     
G06  25185442.434                2 
G15  21320368.234   112039303.922  
G20  20670159.631   108622430.277  
E03  24715019.117   129878310.195  
E05  24156147.276   126941388.902  
J02  36862939.995                3 
E30  27969298.676                3 
E36  25837928.474                  
G11  22134532.717                  
G13  20329917.954   106834453.685  
S29  37341472.469   196230758.469  
S28  37746855.770                3 
S37  36968596.957   194271288.301  
> 2026 04 15 09 46 39.0010000  0 12                     
G15  21320129.243                3 
G20  20670239.587   108622851.460  
E03  24714805.206                  
E05  24156433.714   126942892.992  
J02  36863197.846                3 
E36  25838215.398                  
G11  22134887.781                  
G13  20329970.943   106834731.802  
G05  21801691.169                3 
S29  37341645.924                  
S28  37747028.992                2 
S37  36968769.769   194272195.839  
> 2026 04 15 09 46 40.0010000  0 14                     
G06  25186652.004                3 
G15  21319884.749   112036766.7403 
G20  20670319.774   108623273.487  
E03  24714597.141                1 
E05  24156719.242   126944397.657  
J02  36863460.449                2 
E30  27970240.798                3 
E36  25838501.996                  
G11  22135242.481                  
G13  20330024.297   106835010.696  
G05  21801985.669                3 
S29  37341818.273                3 
S28  37747202.617                2 
S37  36968942.321   194273103.338  
> 2026 04 15 09 46 41.0010000  0 12                     
G06  25187249.244                3 
G15  21319641.480   112035499.1242 
G20  20670400.012   108623695.580  
E05  24157006.011   126945902.071  
J02  36863717.133                3 
E30  27970710.642                  
E36  25838789.077                  
G11  22135596.919                  
G13  20330077.120   106835289.759  
S29  37341990.766                2 
S28  37747375.792                2 
S37  36969114.814   194274010.385  
> 2026 04 15 09 46 42.0010000  0 10                     
G06  25187866.508                2 
G15  21319405.921                3 
G20  20670480.843   108624118.558  
E03  24714182.498                  
E05  24157292.967   126947407.175  
E36  25839076.005                  
G11  22135951.701   116325210.7653 
G13  20330130.664   106835569.808  
S28  37747549.105                2 
S37  36969287.479   194274917.676  
> 2026 04 15 09 46 43.0010000  0 12                     
G06  25188459.187                3 
G15  21319168.909                1 
G20  20670561.495   108624542.389  
E03  24713966.039                  
E05  24157579.413   126948912.791  
E36  25839360.872                1 
G11  22136307.484                1 
G13  20330184.498   106835850.628  
E34  24779418.370                3 
G05  21802866.930                3 
S28  37747722.391                3 
S37  36969460.376   194275825.074  
> 2026 04 15 09 46 44.0010000  0 12                     
G06  25189040.410                2 
G15  21318927.815                3 
G20  20670642.290   108624966.125  
E03  24713743.339                1 
E05  24157866.262                  
E36  25839646.979                  
G11  22136662.295   116328938.4861 
G13  20330238.208   106836131.647  
E34  24779392.296                3 
G05  21803159.249                3 
S28  37747897.868                3 
S37  36969632.921   194276731.971  
> 2026 04 15 09 46 45.0010000  0 11                     
G06  25189631.401                2 
G15  21318689.637                3 
G20  20670723.263   108625390.933  
E03  24713536.580                  
E05  24158152.550   126951924.134  
E36  25839943.643                  
G11  22137015.145   116330803.096  
G13  20330291.663   106836413.654  
E34  24779372.749                3 
G05  21803454.309                3 
S37  36969805.466   194277639.081  
> 2026 04 15 09 46 46.0010000  0 12                     
G06  25190229.614                2 
G15  21318454.463                3 
G20  20670804.147   108625816.312  
E03  24713327.900                1 
E05  24158438.883   126953430.461  
J02  36865035.190                3 
E36  25840223.931                  
G11  22137369.700   116332667.780  
G13  20330345.384   106836696.102  
E34  24779351.541                3 
G05  21803748.764                3 
S37  36969977.996   194278545.928  
> 2026 04 15 09 46 47.0010000  0 10                     
G06  25190831.306   132378858.3793 
G15  21318209.168                3 
G20  20670885.120   108626241.561  
E03  24713116.549                3 
E05  24158725.720   126954936.558  
E36  25840507.545                  
G11  22137724.532   116334532.173  
G13  20330399.013   106836978.567  
E34  24779323.637                3 
S37  36970150.322   194279451.935  
> 2026 04 15 09 46 48.0010000  0  9                     
G06  25191431.474   132382011.2092 
G20  20670966.274                  
E03  24712906.697                3 
E05  24159012.255   126956443.158  
J02  36865568.720                3 
E36  25840795.351                  
G11  22138079.858   116336396.923  
G13  20330452.926   106837261.790  
S37  36970322.939   194280358.054  
> 2026 04 15 09 46 49.0010000  0 10                     
G06  25192030.722                2 
G15  21317740.711                3 
G20  20671047.095                3 
E03  24712695.002                3 
E05  24159299.104   126957950.354  
E36  25841083.485   135795798.9941 
G11  22138434.850   116338259.4953 
G13  20330507.145   106837545.899  
E34  24779283.578                3 
S37  36970495.408   194281264.392  
> 2026 04 15 09 46 50.0010000  0 10                     
G06  25192631.127                2 
E03  24712472.088                3 
E05  24159585.896   126959458.024  
J02  36866104.466                3 
E30  27974971.321                  
E36  25841370.478   135797306.006  
G11  22138789.734   116340124.9062 
G13  20330561.745   106837830.941  
E34  24779259.213                3 
S37  36970667.945                  
> 2026 04 15 09 46 51.0010000  0 10                     
G06  25193231.111                2 
E03  24712260.997                3 
E05  24159872.720   126960965.837  
E30  27975440.978                  
E36  25841657.231   135798812.967  
G11  22139144.614   116341990.2912 
G13  20330616.234                3 
E34  24779212.265                  
G05  21805210.698                3 
S37  36970841.149                3 
> 2026 04 15 09 46 52.0010000  0 10                     
G06  25193830.886   132394623.9962 
E03  24712043.893                3 
E05  24160159.942   126962474.101  
E30  27975914.803                3 
E36  25841944.182   135800319.876  
G11  22139499.681   116343855.9282 
G13  20330672.062                3 
E09  27805583.857                  
E34  24779191.934   130215521.6991 
G05  21805505.281                3 
> 2026 04 15 09 46 53.0010000  0  9                     
G06  25194430.111                3 
E03  24711831.420                3 
E05  24160446.458   126963982.342  
E36  25842230.695                  
G11  22139854.822   116345721.8352 
G13  20330729.590                3 
E09  27806232.986                  
E34  24779166.368                1 
G05  21805802.327                3 
> 2026 04 15 09 46 54.0010000  0 10                     
G06  25195034.627                3 
E03  24711620.843                3 
E05  24160733.328   126965490.506  
E30  27976863.831                3 
E36  25842517.422   135803333.270  
G11  22140210.013   116347587.6792 
G13  20330783.696                3 
E09  27806773.801                3 
E34  24779147.590                3 
G05  21806095.518                3 
> 2026 04 15 09 46 55.0010000  0 10                     
G15  21316299.149                3 
G20  20671546.548                3 
E03  24711406.286                3 
E05  24161020.454   126966999.028  
E30  27977331.850                3 
E36  25842803.804   135804839.259  
G11  22140564.842   116349452.956  
G13  20330839.541                3 
E34  24779148.003                3 
G05  21806386.650                3 
> 2026 04 15 09 46 56.0010000  0 10                     
G06  25196240.962                2 
G15  21316060.027                3 
G20  20671631.674                3 
E03  24711184.946                  
E05  24161307.926   126968507.316  
E36  25843090.608   135806344.299  
G11  22140919.664   116351317.736  
G13  20330899.831                2 
E34  24779112.835                3 
G05  21806674.597                3 
> 2026 04 15 09 46 57.0010000  0 10                     
G15  21315818.871                3 
G20  20671711.402                3 
E03  24710958.774                  
E05  24161594.289   126970015.545  
E30  27978281.268                3 
E36  25843376.952   135807849.192  
G11  22141274.931   116353182.515  
G13  20330951.892                3 
E34  24779115.119                  
G05  21806966.917                2 
> 2026 04 15 09 46 58.0010000  0 10                     
G06  25197435.969                2 
G20  20671789.052                2 
E03  24710739.087   129855842.9881 
E05  24161881.132   126971524.576  
E30  27978748.626                3 
E36  25843663.331   135809354.839  
G11  22141629.620   116355048.101  
G13  20331000.238   106840126.9313 
E34  24779110.885                  
G05  21807262.530                3 
> 2026 04 15 09 46 59.0010000  0 10                     
G06  25198033.324                3 
G15  21315318.768   112012755.3453 
G20  20671864.144   108631378.5683 
E03  24710527.058   129854721.456  
E05  24162169.032   126973034.474  
E36  25843949.782   135810861.700  
G11  22141985.131   116356915.120  
G13  20331053.038   106840403.9263 
E34  24779082.436                3 
G05  21807555.248                3 
> 2026 04 15 09 47 00.0010000  0  7                     
G15  21315077.675   112011488.8652 
G20  20671946.908   108631813.8642 
E03  24710311.719   129853600.442  
E05  24162456.347   126974544.819  
E36  25844235.950                3 
G11  22142340.614   116358783.226  
G13  20331108.804   106840697.8052 
> 2026 04 15 09 47 01.0010000  0  9                     
G15  21314836.482   112010221.2952 
G20  20672028.426   108632241.9872 
E03  24710099.628   129852479.571  
E05  24162743.764   126976057.019  
E36  25844532.887                3 
G11  22142696.428                  
G13  20331163.752   106840986.1042 
E34  24779038.402                3 
G05  21808147.044                3 
> 2026 04 15 09 47 02.0010000  0  8                     
G15  21314598.338   112008961.4082 
G20  20672112.044   108632675.3602 
E03  24709885.325   129851358.535  
E05  24163031.778   126977569.388  
E36  25844814.788                  
G11  22143052.552                3 
G13  20331220.272   106841278.7462 
G05  21808443.082                3 
> 2026 04 15 09 47 03.0010000  0  9                     
G06  25199456.493                3 
G15  21314358.701   112007702.6962 
G20  20672195.229   108633109.7962 
E03  24709674.011   129850238.903  
E05  24163319.913   126979082.571  
E36  25845100.591                  
G11  22143409.060                2 
G13  20331276.344   106841572.7232 
G05  21808740.750                3 
> 2026 04 15 09 47 04.0010000  0  8                     
G15  21314119.979   112006443.8032 
G20  20672276.739   108633544.4262 
E03  24709459.454   129849119.008  
E05  24163607.675   126980596.409  
E36  25845389.815                  
G11  22143765.375                2 
G13  20331331.186   106841867.1752 
G05  21809032.444                3 
> 2026 04 15 09 47 05.0010000  0  8                     
G15  21313880.453   112005185.3682 
G20  20672359.327   108633979.5742 
E03  24709247.146   129847999.516  
E05  24163895.758   126982110.014  
E36  25845675.877                  
G11  22144121.724   116368144.3473 
G13  20331387.168   106842162.1062 
G05  21809322.968                3 
> 2026 04 15 09 47 06.0010000  0  9                     
G29  22372550.328                3 
G15  21313640.644   112003927.4692 
G20  20672442.463   108634415.3222 
E03  24709034.116   129846880.442  
E05  24164184.068   126983624.298  
E36  25845962.751                  
G11  22144477.932   116370017.1902 
G13  20331443.829   106842457.8402 
G05  21809614.931                3 
> 2026 04 15 09 47 07.0010000  0 10                     
G29  22372393.048                3 
G15  21313401.129   112002669.5821 
G20  20672525.722   108634852.004  
E03  24708821.423   129845761.782  
E05  24164472.488   126985139.430  
E36  25846250.465                  
G11  22144834.441   116371890.745  
G13  20331500.719   106842754.627  
G05  21809908.770                3 
S37  36973600.011   194297578.9943 
> 2026 04 15 09 47 08.0010000  0 10                     
G29  22372219.900                2 
G15  21313161.858   112001412.621  
G20  20672608.971   108635289.335  
E03  24708607.773   129844643.408  
E05  24164761.328   126986655.159  
E36  25846537.191                3 
G11  22145190.999                  
G13  20331557.794   106843052.208  
G05  21810199.866                3 
S37  36973772.643   194298486.7202 
> 2026 04 15 09 47 09.0010000  0 12                     
G29  22372053.425                2 
G15  21312923.121   112000156.158  
G20  20672692.314   108635726.880  
E03  24708395.504   129843524.911  
E05  24165049.524   126988170.721  
E36  25846825.793                  
G11  22145547.713   116375638.573  
G13  20331614.458   106843349.886  
G05  21810493.718                3 
S29  37346818.943   196258858.0703 
S28  37752217.005   198389238.6513 
S37  36973945.322   194299393.794  
> 2026 04 15 09 47 10.0010000  0 13                     
G29  22371883.315                3 
G15  21312684.342   111998899.762  
G20  20672776.191   108636164.774  
E03  24708182.956   129842406.721  
E05  24165337.869   126989686.644  
E36  25847113.292                1 
G11  22145903.936   116377512.596  
G13  20331671.181   106843648.120  
E09  27817429.508                3 
G05  21810786.647                3 
S29  37346991.043   196259762.2722 
S28  37752389.401   198390144.5642 
S37  36974117.862   194300300.913  
> 2026 04 15 09 47 11.0010000  0 13                     
G29  22371713.363                2 
G15  21312445.124   111997643.813  
G20  20672859.651   108636603.629  
E03  24707969.833   129841288.678  
E05  24165626.136   126991203.385  
E36  25847401.322   135829009.9861 
G11  22146260.750   116379387.450  
G13  20331728.272   106843947.430  
E09  27818092.292                  
G05  21811076.302                3 
S29  37347163.371   196260666.321  
S28  37752562.217   198391050.6832 
S37  36974290.506   194301208.055  
> 2026 04 15 09 47 12.0010000  0 12                     
G15  21312206.462   111996388.232  
G20  20672943.016   108637042.549  
E03  24707756.870   129840170.652  
E05  24165915.079   126992720.199  
E36  25847688.090                  
G11  22146617.586   116381261.863  
G13  20331785.183   106844246.940  
E09  27818761.996                  
G05  21811369.411                3 
S29  37347335.343   196261570.295  
S28  37752734.504   198391956.598  
S37  36974462.909   194302114.663  
> 2026 04 15 09 47 13.0010000  0 14                     
G29  22371380.423                3 
G15  21311967.375   111995132.790  
G20  20673026.707   108637481.558  
E03  24707543.976   129839052.413  
E05  24166203.633   126994236.520  
J03  38823437.713                2 
E36  25847974.451                  
G11  22146974.325   116383136.019  
G13  20331841.973   106844546.301  
E09  27819419.796                  
G05  21811660.583                3 
S29  37347507.331   196262473.916  
S28  37752906.832   198392861.738  
S37  36974635.470   194303020.661  
> 2026 04 15 09 47 14.0010000  0 12                     
G29  22371219.798                3 
G15  21311728.329   111993877.486  
G20  20673110.310   108637921.305  
E03  24707332.463   129837934.964  
E05  24166492.255   126995753.600  
J03  38823408.729                2 
E36  25848264.474                  
G11  22147329.199                3 
G13  20331899.304   106844846.833  
S29  37347679.022   196263377.187  
S28  37753079.337   198393767.118  
S37  36974807.981   194303927.187  
> 2026 04 15 09 47 15.0010000  0 13                     
G29  22371042.605                2 
G15  21311490.040   111992623.080  
G20  20673194.088   108638361.893  
E03  24707119.262   129836817.655  
E05  24166781.025                  
J03  38823376.845                2 
E36  25848552.300                  
G11  22147687.914   116386875.6463 
G13  20331956.715   106845148.260  
G05  21812244.564                3 
S29  37347851.427   196264280.852  
S28  37753251.595   198394672.568  
S37  36974980.388   194304833.825  
> 2026 04 15 09 47 16.0010000  0 12                     
G15  21311251.353   111991369.137  
G20  20673278.068   108638802.999  
E03  24706907.149   129835701.013  
E05  24167069.931                  
J03  38823342.863                2 
E36  25848839.090                  
G11  22148045.020                2 
G13  20332013.982   106845450.215  
G05  21812540.052                3 
S29  37348023.442   196265184.520  
S28  37753423.782   198395578.054  
S37  36975152.993   194305740.383  
> 2026 04 15 09 47 17.0010000  0 13                     
G29  22370705.891                3 
G15  21311012.677   111990115.345  
G20  20673361.889   108639244.308  
E03  24706694.856   129834584.098  
E05  24167358.709   127000307.731  
J03  38823311.384   204017870.8232 
E36  25849128.499                  
G11  22148401.015   116390627.2082 
G13  20332071.801   106845752.615  
G05  21812832.076                2 
S29  37348195.432   196266087.789  
S28  37753596.049   198396483.258  
S37  36975325.546   194306646.578  
> 2026 04 15 09 47 18.0010000  0 12                     
G15  21310774.146   111988861.716  
G20  20673446.007   108639686.083  
E03  24706482.363   129833467.421  
E05  24167647.868                  
J03  38823279.534                2 
E36  25849416.031                1 
G11  22148758.042                2 
G13  20332129.454   106846055.454  
G05  21813119.678                2 
S29  37348367.244   196266990.827  
S28  37753768.079   198397388.091  
S37  36975497.856   194307552.668  
> 2026 04 15 09 47 19.0010000  0 13                     
G29  22370373.558                3 
G15  21310535.968   111987608.782  
G20  20673530.330   108640128.583  
E03  24706269.046   129832351.226  
E05  24167937.097                  
J03  38823247.886                2 
E36  25849705.311                1 
G11  22149119.198                3 
G13  20332187.499   106846359.229  
G05  21813410.087                3 
S29  37348539.190   196267894.027  
S28  37753940.039   198398293.033  
S37  36975670.021   194308458.848  
> 2026 04 15 09 47 20.0010000  0 12                     
G15  21310297.537   111986355.918  
G20  20673614.525   108640571.335  
E03  24706057.159   129831235.038  
E05  24168226.537                  
J03  38823215.957                3 
E36  25849989.548                1 
G11  22149475.896                3 
G13  20332245.351   106846663.338  
G05  21813704.826                3 
S29  37348710.604   196268796.744  
S28  37754111.809   198399197.331  
S37  36975842.424   194309364.927  
> 2026 04 15 09 47 21.0010000  0 12                     
G15  21310059.249   111985103.584  
G20  20673698.949   108641014.583  
E03  24705845.758   129830119.236  
E05  24168515.641                  
J03  38823183.869                2 
E36  25850279.139                3 
G11  22149835.495                3 
G13  20332303.372   106846967.998  
G05  21813998.595                3 
S29  37348882.488   196269699.574  
S28  37754283.788   198400101.948  
S37  36976015.076   194310270.829  
> 2026 04 15 09 47 22.0010000  0 12                     
G15  21309821.215   111983851.598  
G20  20673783.515   108641458.326  
E03  24705633.656   129829003.613  
E05  24168804.819                  
J03  38823151.685   204017038.3703 
E36  25850567.396                  
G11  22150189.101                2 
G13  20332361.225   106847273.261  
G05  21814291.448                2 
S29  37349054.155   196270602.177  
S28  37754456.052   198401006.454  
S37  36976187.419   194311176.636  
> 2026 04 15 09 47 23.0010000  0 12                     
G15  21309582.979   111982600.741  
G20  20673868.271   108641903.195  
E03  24705421.317   129827888.928  
E05  24169094.320   127009423.960  
J03  38823119.773                2 
E36  25850856.396                1 
G11  22150544.828                2 
G13  20332419.486   106847579.645  
G05  21814584.086                3 
S29  37349225.859   196271505.406  
S28  37754628.513   198401911.636  
S37  36976359.885   194312082.876  
> 2026 04 15 09 47 24.0010000  0 12                     
G15  21309344.421   111981349.183  
G20  20673952.831   108642347.578  
E03  24705208.649   129826773.340  
E05  24169383.371   127010943.909  
J03  38823087.331   204016700.1502 
E36  25851148.224                  
G11  22150901.984   116403783.9563 
G13  20332477.543   106847885.614  
G05  21814872.303                2 
S29  37349397.549   196272407.512  
S28  37754800.441   198402815.576  
S37  36976531.769   194312987.939  
> 2026 04 15 09 47 25.0010000  0 12                     
G15  21309106.356   111980098.593  
G20  20674037.231   108642792.938  
E03  24704995.993   129825658.486  
E05  24169672.387                  
J03  38823055.096                2 
E36  25851429.784                1 
G11  22151259.120                  
G13  20332535.751   106848192.738  
G05  21815167.231                2 
S29  37349569.055   196273310.152  
S28  37754972.802   198403719.943  
S37  36976703.934   194313893.412  
> 2026 04 15 09 47 26.0010000  0 12                     
G15  21308868.023   111978848.197  
G20  20674122.166   108643238.748  
E03  24704784.042   129824543.737  
E05  24169961.918                  
J03  38823022.946                1 
E36  25851719.996                  
G11  22151616.484                3 
G13  20332594.412   106848500.284  
G05  21815458.485                3 
S29  37349740.732   196274212.456  
S28  37755144.675   198404624.158  
S37  36976876.080   194314798.625  
> 2026 04 15 09 47 27.0010000  0 12                     
G15  21308630.289   111977598.309  
G20  20674206.757   108643684.899  
E03  24704572.217   129823429.248  
E05  24170251.241   127015506.612  
J03  38822990.746                  
E36  25852007.503                  
G11  22151973.481                2 
G13  20332653.197   106848808.301  
G05  21815754.049                3 
S29  37349912.514   196275114.591  
S28  37755316.555   198405528.130  
S37  36977048.291   194315703.741  
> 2026 04 15 09 47 28.0010000  0 12                     
G15  21308392.719   111976348.901  
G20  20674291.507   108644131.786  
E03  24704360.229   129822315.292  
E05  24170541.171   127017028.291  
J03  38822958.352   204016020.8561 
E36  25852294.901                  
G11  22152331.462   116411285.7553 
G13  20332712.083   106849117.294  
G05  21816044.693                3 
S29  37350084.213   196276016.867  
S28  37755488.653   198406432.098  
S37  36977220.829   194316609.040  
> 2026 04 15 09 47 29.0010000  0 11                     
G15  21308155.138   111975099.823  
G20  20674376.569   108644578.969  
E03  24704148.156   129821201.227  
E05  24170831.056   127018550.032  
J03  38822925.748                  
E36  25852582.461                  
G11  22152689.166   116413164.1562 
G13  20332771.155   106849426.604  
S29  37350255.962   196276918.931  
S28  37755660.718   198407336.016  
S37  36977393.290   194317513.983  
> 2026 04 15 09 47 30.0010000  0 11                     
G15  21307917.441   111973851.282  
G20  20674461.379   108645026.766  
E03  24703935.963   129820087.492  
E05  24171120.269   127020072.314  
J03  38822893.207                  
E36  25852871.434                  
G11  22153046.431                2 
G13  20332830.208   106849736.664  
S29  37350427.821   196277821.008  
S28  37755832.855   198408239.978  
S37  36977565.417   194318418.827  
> 2026 04 15 09 47 31.0010000  0 13                     
G29  22368345.145                3 
G15  21307679.729   111972602.677  
G20  20674546.952   108645474.824  
E03  24703723.666   129818973.570  
E05  24171410.002   127021594.689  
J03  38822860.614                  
E36  25853159.731                  
G11  22153404.347                3 
G13  20332889.078   106850046.757  
G05  21816918.660                3 
S29  37350599.031   196278722.666  
S28  37756005.150   198409143.537  
S37  36977737.626   194319323.138  
> 2026 04 15 09 47 32.0010000  0 13                     
G29  22368181.987                3 
G15  21307442.187   111971354.759  
G20  20674632.510   108645923.597  
E03  24703512.261   129817860.351  
E05  24171699.456   127023117.519  
J03  38822828.238                  
E36  25853444.001                  
G11  22153761.868                2 
G13  20332947.849   106850358.033  
G05  21817213.387                3 
S29  37350770.701   196279624.467  
S28  37756177.000   198410047.141  
S37  36977909.315   194320227.892  
> 2026 04 15 09 47 33.0010000  0 13                     
G29  22368001.202                3 
G15  21307204.909   111970107.877  
G20  20674718.481   108646373.525  
E03  24703301.517   129816748.052  
E05  24171989.874   127024641.293  
J03  38822795.988   204015169.284  
E36  25853733.649                  
G11  22154119.555   116420684.2823 
G13  20333007.601   106850670.287  
G05  21817507.889                2 
S29  37350942.472   196280526.831  
S28  37756349.115   198410951.369  
S37  36978081.933   194321133.057  
> 2026 04 15 09 47 34.0010000  0 13                     
G29  22367830.432                3 
G15  21306967.763   111968861.236  
G20  20674804.144   108646823.707  
E03  24703089.258   129815635.679  
E05  24172279.889   127026164.980  
J03  38822763.391                  
E36  25854022.181   135863812.4491 
G11  22154477.165   116422564.2802 
G13  20333067.432   106850983.034  
E09  27833227.803                1 
S29  37351114.247   196281428.864  
S28  37756520.781   198411855.299  
S37  36978253.936   194322037.867  
> 2026 04 15 09 47 35.0010000  0 13                     
G29  22367645.729                2 
G15  21306730.704   111967615.108  
G20  20674889.921   108647274.481  
E03  24702876.954   129814523.970  
E05  24172569.968   127027689.139  
J03  38822731.038                  
E36  25854311.048                  
G11  22154835.153                2 
G13  20333127.007   106851296.573  
E09  27833882.152                  
S29  37351285.973   196282330.997  
S28  37756692.621   198412759.205  
S37  36978425.948   194322943.090  
> 2026 04 15 09 47 36.0010000  0 12                     
G29  22367476.482   117541896.6393 
G15  21306493.579   111966369.365  
G20  20674975.895   108647725.611  
E03  24702665.574   129813412.601  
E05  24172859.974   127029213.317  
J03  38822698.265                  
E36  25854600.374                3 
G11  22155192.923                2 
G13  20333186.804   106851610.352  
S29  37351457.673   196283232.924  
S28  37756864.719   198413662.917  
S37  36978598.298   194323848.154  
> 2026 04 15 09 47 37.0010000  0 13                     
G29  22367310.424   117541022.3992 
G15  21306256.727   111965124.301  
G20  20675061.792   108648177.353  
E03  24702453.768   129812301.806  
E05  24173150.051   127030737.759  
J03  38822665.721   204014486.344  
E36  25854889.717                3 
G11  22155551.004                3 
G13  20333246.762   106851925.129  
G05  21818677.773                3 
S29  37351629.189   196284135.096  
S28  37757036.816   198414566.715  
S37  36978770.432   194324753.259  
> 2026 04 15 09 47 38.0010000  0 12                     
G29  22367144.381   117540148.372  
G15  21306019.729   111963879.844  
G20  20675147.859   108648629.666  
E03  24702242.543   129811191.730  
E05  24173439.911   127032262.528  
J03  38822633.316   204014315.107  
E36  25855173.344                3 
G11  22155908.823                2 
G13  20333306.566                  
S29  37351800.973   196285037.485  
S28  37757208.550   198415470.867  
S37  36978942.785   194325658.827  
> 2026 04 15 09 47 39.0010000  0 13                     
G29  22366979.085   117539275.213  
G15  21305783.341   111962636.365  
G20  20675233.952   108649083.093  
E03  24702031.702   129810082.354  
E05  24173730.522   127033787.875  
J03  38822600.822   204014144.331  
E36  25855466.671                  
G11  22156266.941                2 
G13  20333366.822   106852556.859  
G05  21819247.916                2 
S29  37351972.913   196285940.203  
S28  37757380.705   198416375.295  
S37  36979115.365   194326564.691  
> 2026 04 15 09 47 40.0010000  0 13                     
G29  22366811.680   117538402.023  
G15  21305546.950   111961393.148  
G20  20675320.162   108649536.535  
E03  24701819.717   129808973.109  
E05  24174020.561   127035313.138  
J03  38822568.214   204013972.685  
E36  25855753.663                  
G11  22156624.913                3 
G13  20333427.027   106852873.465  
G05  21819543.934                3 
S29  37352144.565   196286842.778  
S28  37757552.787                3 
S37  36979287.698   194327470.303  
> 2026 04 15 09 47 41.0010000  0 13                     
G29  22366646.346   117537529.829  
G15  21305310.666   111960151.041  
G20  20675406.860   108649991.321  
E03  24701609.206                  
E05  24174311.389   127036839.158  
J03  38822535.703   204013801.698  
E36  25856035.420                1 
G11  22156982.130   116435725.9813 
G13  20333487.401   106853191.497  
E34  24778113.057                3 
S29  37352316.610   196287746.141  
S28  37757725.036   198418183.5603 
S37  36979460.214   194328376.580  
> 2026 04 15 09 47 42.0010000  0 13                     
G29  22366480.635   117536657.920  
G15  21305074.470   111958909.470  
G20  20675493.508   108650446.279  
E03  24701398.655   129806757.177  
E05  24174601.481                  
J03  38822502.896   204013629.942  
E36  25856317.585                3 
G11  22157341.189   116437608.0532 
G13  20333548.081   106853509.686  
G05  21820113.539                3 
S29  37352488.303   196288649.258  
S28  37757897.183   198419088.4342 
S37  36979632.488                3 
> 2026 04 15 09 47 43.0010000  0 12                     
G29  22366314.924   117535786.228  
G15  21304838.351   111957668.093  
G20  20675579.998   108650901.610  
E03  24701187.178                  
E05  24174892.329                3 
J03  38822469.902   204013457.591  
E36  25856604.164                3 
G11  22157697.436                  
G13  20333608.460   106853828.271  
S29  37352660.129   196289552.365  
S28  37758069.443   198419993.4712 
S37  36979805.130                2 
> 2026 04 15 09 47 44.0010000  0 14                     
G29  22366149.065   117534914.370  
G15  21304602.225   111956427.361  
G20  20675666.672   108651357.025  
E03  24700977.255                  
E05  24175189.516                  
J03  38822436.752                  
E36  25856907.006                3 
G11  22158056.919                  
G13  20333669.035   106854147.004  
E09  27839820.492                3 
G05  21820670.422                3 
S29  37352832.317                  
S28  37758241.780   198420898.5082 
S37  36979977.527                2 
> 2026 04 15 09 47 45.0010000  0 14                     
G29  22365983.053   117534043.391  
G15  21304366.375   111955187.684  
G20  20675753.526   108651813.352  
E03  24700767.503   129803436.068  
E05  24175483.881                3 
J03  38822404.074                  
E36  25857187.456                3 
G11  22158416.836                3 
G13  20333729.965   106854466.708  
E34  24778007.970                3 
G05  21820963.721                2 
S29  37353004.264   196291359.333  
S28  37758414.254   198421804.1762 
S37  36980150.034                2 
> 2026 04 15 09 47 46.0010000  0 13                     
G29  22365817.626   117533172.766  
G15  21304130.302   111953948.656  
G20  20675840.447   108652270.330  
E03  24700556.628   129802330.196  
E05  24175792.746                3 
J03  38822372.823                3 
E36  25857482.542                3 
G13  20333790.926   106854786.972  
E34  24777977.412                3 
G05  21821256.307                3 
S29  37353176.237   196292263.240  
S28  37758586.568                  
S37  36980322.431                2 
> 2026 04 15 09 47 47.0010000  0 11                     
G29  22365652.112   117532303.178  
G15  21303894.722   111952710.409  
G20  20675927.565   108652727.876  
E03  24700346.084                  
J03  38822338.469                3 
G11  22159138.371                3 
G13  20333852.061   106855107.849  
G05  21821549.617                3 
S29  37353348.244   196293167.523  
S28  37758759.367                  
S37  36980494.975                2 
> 2026 04 15 09 47 48.0010000  0 11                     
G29  22365486.517   117531433.832  
G15  21303659.348   111951472.707  
G20  20676014.730   108653185.701  
E03  24700135.992                  
G11  22159497.045                3 
G13  20333913.287   106855429.108  
E34  24777927.375                3 
G05  21821838.965                2 
S29  37353520.123   196294071.882  
S28  37758931.850   198424522.746  
S37  36980667.238   194334713.3611 
> 2026 04 15 09 47 49.0010000  0 12                     
G29  22365321.442   117530565.187  
G15  21303423.788   111950236.123  
G20  20676102.119   108653644.502  
E03  24699925.945                  
J07  36980847.423                2 
G11  22159857.977                2 
G13  20333974.514   106855751.405  
E34  24777901.138                  
G05  21822129.630                3 
S29  37353692.587                3 
S28  37759104.580                3 
S37  36980839.647   194335619.128  
> 2026 04 15 09 47 50.0010000  0 13                     
G29  22365156.020   117529697.180  
G15  21303188.363   111948999.728  
G20  20676189.551   108654103.927  
E03  24699715.796                  
J07  36981016.536                2 
E36  25858713.733                3 
G11  22160223.539                3 
G13  20334035.908   106856074.267  
E34  24777877.003                1 
G05  21822418.899                3 
S29  37353864.750   196295883.6113 
S28  37759277.065   198426339.7313 
S37  36981011.959   194336524.841  
> 2026 04 15 09 47 51.0010000  0 12                     
G29  22364990.426   117528829.492  
G15  21302953.195   111947763.711  
G20  20676276.926   108654563.461  
E03  24699505.362   129796808.217  
J07  36981189.656                2 
E36  25859000.975                3 
G13  20334097.375   106856397.323  
E34  24777850.955                3 
G05  21822709.104                3 
S29  37354037.106   196296788.1962 
S28  37759449.595   198427246.3322 
S37  36981184.220   194337430.147  
> 2026 04 15 09 47 52.0010000  0 11                     
G29  22364826.610   117527962.608  
G15  21302718.241   111946528.463  
G20  20676364.444   108655023.783  
E03  24699295.674                  
J07  36981361.752                2 
E36  25859294.368                3 
G13  20334159.119   106856721.209  
G05  21823000.792                3 
S29  37354209.356   196297693.1912 
S28  37759622.009   198428153.4302 
S37  36981356.394   194338335.680  
> 2026 04 15 09 47 53.0010000  0 11                     
G29  22364661.470   117527095.645  
G15  21302483.229   111945293.278  
G20  20676452.338   108655484.363  
E03  24699085.643   129794601.744  
J07  36981534.801                2 
E36  25859585.037                3 
G11  22161349.943                3 
G13  20334221.071   106857045.525  
S29  37354381.171   196298597.5712 
S28  37759794.739   198429059.9092 
S37  36981528.615   194339240.734  
> 2026 04 15 09 47 54.0010000  0 11                     
G29  22364496.665   117526229.373  
G15  21302248.291   111944058.604  
G20  20676540.345   108655945.443  
E03  24698875.563   129793498.793  
J07  36981706.292                2 
E36  25859860.536                  
G13  20334282.703   106857370.368  
E34  24777773.913                3 
S29  37354553.264   196299502.0372 
S28  37759967.614   198429966.2652 
S37  36981700.836                  
> 2026 04 15 09 47 55.0010000  0 12                     
G29  22364332.077   117525363.896  
G15  21302013.651   111942824.599  
G20  20676628.466   108656407.379  
E03  24698666.107   129792396.267  
J07  36981878.223                2 
E36  25860153.994                3 
G13  20334344.701   106857696.149  
E34  24777745.694                  
G05  21823872.177                3 
S29  37354725.187   196300406.628  
S28  37760140.181   198430872.4031 
S37  36981873.107                  
> 2026 04 15 09 47 56.0010000  0 13                     
G29  22364167.528   117524498.595  
G15  21301778.742   111941590.669  
G20  20676716.099   108656869.375  
E03  24698456.110   129791293.759  
J07  36982050.262                3 
E36  25860442.057                  
G11  22162452.114                3 
G13  20334406.802   106858022.076  
E34  24777736.719                3 
G05  21824169.082                3 
S29  37354897.867   196301310.886  
S28  37760312.322   198431778.884  
S37  36982045.411   194341955.692  
> 2026 04 15 09 47 57.0010000  0 13                     
G29  22364003.148   117523633.815  
G15  21301544.212   111940357.412  
G20  20676803.895   108657332.125  
E03  24698246.436                  
J07  36982222.221                2 
E36  25860731.674                  
G11  22162792.765                3 
G13  20334468.638   106858348.843  
E34  24777705.200                3 
G05  21824464.478                2 
S29  37355069.731   196302215.400  
S28  37760484.848   198432685.204  
S37  36982217.445   194342860.372  
> 2026 04 15 09 47 58.0010000  0 13                     
G29  22363838.403   117522769.609  
G15  21301309.646   111939124.317  
G20  20676891.962   108657795.309  
E03  24698037.046   129789089.640  
J07  36982394.244                2 
E36  25861013.269                  
G11  22163139.093                3 
G13  20334530.957   106858676.118  
E34  24777684.020                3 
G05  21824751.329                3 
S29  37355241.604   196303119.465  
S28  37760657.419   198433591.473  
S37  36982389.660   194343765.042  
> 2026 04 15 09 47 59.0020000  0 12                     
G29  22363673.783   117521904.919  
G15  21301074.736   111937890.236  
G20  20676980.172   108658259.137  
E03  24697827.519   129787986.379  
J07  36982566.707   194344699.7413 
E36  25861303.665                  
G11  22163503.588                2 
G13  20334593.366   106859004.003  
E34  24777658.958                3 
G05  21825040.252                2 
S29  37355413.755   196304024.234  
S37  36982561.853   194344669.973  
> 2026 04 15 09 48 00.0020000  0 11                     
G29  22363509.166   117521041.571  
G15  21300840.312   111936657.759  
G20  20677068.329   108658723.071  
E03  24697617.809   129786884.617  
J07  36982738.991                2 
E36  25861589.675                1 
G11  22163860.239   116471879.3473 
G13  20334655.762   106859332.163  
G05  21825332.516                3 
S29  37355585.392   196304928.054  
S37  36982734.006   194345574.180  
> 2026 04 15 09 48 01.0020000  0 12                     
G29  22363344.344   117520178.356  
G15  21300605.956   111935425.420  
G20  20677156.641   108659187.367  
E03  24697407.389   129785782.895  
J07  36982911.043   194346507.7522 
E36  25861877.957                  
G11  22164219.751                2 
G13  20334718.338   106859660.836  
E34  24777609.417                3 
G05  21825660.729                3 
S29  37355757.871   196305831.358  
S37  36982905.737   194346477.985  
> 2026 04 15 09 48 02.0020000  0 12                     
G29  22363180.687   117519315.793  
G15  21300371.595   111934193.686  
G20  20677244.633   108659652.000  
E03  24697197.678   129784681.325  
J07  36983083.026   194347410.7911 
E36  25862171.340                3 
G11  22164577.894                1 
G13  20334781.135   106859989.906  
E34  24777582.896                3 
G05  21825925.286                3 
S29  37355929.899   196306734.896  
S37  36983077.708   194347381.491  
> 2026 04 15 09 48 03.0020000  0 12                     
G29  22363017.038   117518453.865  
G15  21300137.278   111932961.864  
G20  20677333.276   108660116.830  
E03  24696988.284   129783579.337  
J07  36983254.671                  
E36  25862454.801                  
G11  22164940.185                3 
G13  20334843.872   106860319.128  
E34  24777554.314                3 
G05  21826200.398                2 
S29  37356101.797   196307637.825  
S37  36983249.631   194348284.349  
> 2026 04 15 09 48 04.0020000  0 12                     
G29  22362852.570   117517593.322  
G15  21299902.819   111931730.485  
G20  20677421.771   108660582.006  
E03  24696779.210   129782477.471  
J07  36983426.439                  
E36  25862738.841                  
G11  22165296.772                2 
G13  20334906.361   106860648.615  
E34  24777524.879                  
G05  21826494.183                3 
S29  37356273.541   196308540.830  
S37  36983421.146   194349186.275  
> 2026 04 15 09 48 05.0020000  0 11                     
G29  22362689.443   117516734.459  
G15  21299668.616   111930499.896  
G20  20677510.618   108661047.911  
E03  24696569.659   129781375.676  
J07  36983598.003                  
E36  25863033.169                3 
G11  22165653.714                2 
G13  20334969.250   106860978.779  
G05  21826789.747                2 
S29  37356445.492   196309443.863  
S37  36983592.680                3 
> 2026 04 15 09 48 06.0020000  0 11                     
G29  22362525.288   117515875.048  
G15  21299434.367   111929268.540  
G20  20677599.213   108661513.625  
E03  24696358.981   129780272.912  
E05  24181623.455                3 
J07  36983769.393                3 
G11  22166011.320   116483184.5793 
G13  20335032.296   106861309.068  
G05  21827080.590   114702065.3743 
S29  37356617.082   196310345.994  
S37  36983763.883                2 
> 2026 04 15 09 48 07.0020000  0 11                     
G29  22362361.839   117515015.343  
G15  21299199.938   111928037.714  
G20  20677687.760   108661979.841  
E03  24696149.402                  
E05  24181914.590                3 
E36  25863606.040                  
G11  22166368.905                2 
G13  20335095.078   106861639.960  
G05  21827371.976                3 
S29  37356789.022   196311247.829  
S37  36983935.335                3 
> 2026 04 15 09 48 08.0020000  0 11                     
G29  22362198.912   117514156.879  
G15  21298965.833   111926807.658  
G20  20677777.122   108662446.827  
E03  24695939.589                1 
J07  36984111.740                  
E36  25863893.636                1 
G11  22166728.667                  
G13  20335157.952   106861971.674  
G05  21827660.469                2 
S29  37356960.676   196312149.992  
S37  36984106.865                2 
> 2026 04 15 09 48 09.0020000  0 12                     
G29  22362035.960   117513298.019  
G15  21298732.155   111925577.934  
G20  20677866.054   108662914.468  
E03  24695729.829                  
J07  36984280.261                  
E36  25864181.658                  
G11  22167086.930                  
G13  20335221.293   106862304.269  
G05  21827952.024   114706676.3723 
S29  37357132.199   196313052.226  
S28  37762552.755   198443553.2813 
S37  36984278.732                3 
> 2026 04 15 09 48 10.0020000  0 11                     
G29  22361871.895   117512439.009  
G15  21298497.567   111924348.473  
G20  20677955.333   108663382.451  
E03  24695524.483                3 
E36  25864465.064                  
G11  22167445.662                  
G13  20335284.465   106862637.407  
G05  21828244.178                3 
S29  37357303.716   196313953.928  
S28  37762724.695   198444457.1562 
S37  36984450.220                2 
> 2026 04 15 09 48 11.0020000  0 13                     
G29  22361709.039   117511580.757  
G15  21298264.336   111923119.904  
G20  20678044.873   108663851.436  
E03  24695311.250                  
J07  36984633.197                3 
E36  25864760.694                3 
G11  22167804.180                3 
G13  20335348.072                  
E34  24777367.782                3 
G05  21828533.442                2 
S29  37357475.202   196314856.191  
S28  37762896.388   198445361.627  
S37  36984622.057                2 
> 2026 04 15 09 48 12.0020000  0 10                     
G29  22361546.012   117510723.034  
G15  21298030.243   111921891.622  
G20  20678133.900   108664320.777  
E03  24695105.381                  
E36  25865041.143                  
G11  22168162.844   116494481.6413 
G13  20335411.720                  
G05  21828825.181                3 
S29  37357646.569   196315758.208  
S28  37763068.455   198446265.619  
> 2026 04 15 09 48 13.0020000  0 11                     
G29  22361383.043   117509865.941  
G15  21297796.527   111920663.780  
G20  20678223.412   108664790.691  
E03  24694896.394                1 
G11  22168521.352                  
G13  20335475.858   106863641.532  
E34  24777321.218                3 
G05  21829123.168                2 
S29  37357818.598   196316660.199  
S28  37763240.029   198447169.823  
S37  36984965.547                3 
> 2026 04 15 09 48 14.0020000  0 12                     
G29  22361220.076   117509010.311  
G15  21297562.906   111919436.652  
G20  20678312.525   108665260.894  
E03  24694681.766                  
E36  25865616.836                  
G11  22168880.161                  
G13  20335539.735                  
E34  24777304.674                3 
G05  21829413.987                2 
S29  37357990.211   196317562.441  
S28  37763412.118   198448074.331  
S37  36985137.317                2 
> 2026 04 15 09 48 15.0020000  0 11                     
G29  22361057.146   117508155.116  
G15  21297329.624   111918209.567  
G20  20678401.882   108665731.362  
E03  24694471.835                3 
E36  25865909.585                  
G11  22169238.945   116500133.754  
G13  20335605.975                3 
G05  21829706.757                3 
S29  37358162.026   196318464.276  
S28  37763584.570                  
S37  36985310.168                3 
> 2026 04 15 09 48 16.0020000  0 11                     
G29  22360895.046   117507301.986  
G15  21297096.170   111916983.693  
G20  20678492.052   108666203.699  
E03  24694264.213                  
E36  25866192.774                1 
G11  22169597.457                3 
G13  20335670.802                3 
G05  21829995.634                2 
S29  37358334.069   196319366.709  
S28  37763757.152   198449882.7943 
S37  36985483.013                3 
> 2026 04 15 09 48 17.0020000  0 10                     
G29  22360732.768   117506450.356  
G15  21296862.989   111915758.486  
G20  20678582.223   108666677.263  
E03  24694055.849                  
E36  25866480.735                  
G11  22169956.496                2 
G13  20335734.143                2 
G05  21830290.355                2 
S29  37358505.878   196320269.332  
S28  37763929.440   198450787.6132 
> 2026 04 15 09 48 18.0020000  0 10                     
G29  22360570.997   117505599.650  
G15  21296629.639   111914532.966  
G20  20678672.866   108667150.998  
E03  24693848.472                  
G11  22170314.037                3 
G13  20335794.698                3 
E34  24777198.328                3 
G05  21830577.227                2 
S29  37358677.189   196321171.117  
S28  37764101.587   198451692.0142 
> 2026 04 15 09 48 19.0020000  0 12                     
G29  22360408.325   117504745.524  
G15  21296395.687   111913303.731  
G20  20678762.232   108667621.079  
E03  24693640.158   129765931.8811 
E05  24185414.356                3 
E36  25867050.802                1 
G11  22170669.994                  
G13  20335863.897                3 
E34  24777177.859                3 
G05  21830869.200                2 
S29  37358847.998   196322068.681  
S28  37764273.005   198452592.0912 
> 2026 04 15 09 48 20.0020000  0 12                     
G29  22360245.805   117503889.799  
G15  21296161.761   111912072.833  
G20  20678851.631   108668089.475  
E03  24693430.921   129764826.874  
E05  24185710.051                3 
E36  25867342.488                  
G11  22171032.644                  
G13  20335934.133                3 
E34  24777154.038                3 
G05  21831163.765                  
S29  37359018.246   196322964.136  
S28  37764444.154   198453490.0252 
> 2026 04 15 09 48 21.0020000  0 12                     
G29  22360082.736   117503032.741  
G15  21295926.990   111910840.500  
G20  20678940.810   108668556.427  
E03  24693217.472   129763720.108  
E05  24185997.629                3 
E36  25867629.102                  
G11  22171390.987                  
G13  20335995.253                3 
E34  24777128.350                3 
G05  21831454.290                  
S29  37359188.112   196323857.635  
S28  37764615.062   198454385.9252 
> 2026 04 15 09 48 22.0020000  0 10                     
G29  22359920.040   117502176.422  
G15  21295692.613   111909608.856  
G20  20679030.023   108669024.159  
E03  24693007.637   129762613.913  
E36  25867921.882                3 
G11  22171749.556                  
G13  20336048.773                3 
G05  21831745.009                  
S29  37359358.328   196324751.284  
S28  37764785.488   198455281.962  
> 2026 04 15 09 48 23.0020000  0  9                     
G29  22359756.998   117501320.502  
G15  21295458.208   111908377.649  
G20  20679119.530   108669492.387  
E03  24692797.941                  
G11  22172107.944   116515196.1671 
G13  20336112.930                2 
G05  21832035.408                  
S29  37359528.582   196325644.840  
S28  37764956.199   198456177.958  
> 2026 04 15 09 48 24.0020000  0  9                     
G29  22359593.872   117500464.942  
G15  21295223.931   111907146.651  
G20  20679208.872   108669961.091  
E03  24692587.318   129760402.037  
G11  22172465.697                  
G13  20336178.340   106867337.8753 
G05  21832326.249                  
S29  37359698.893   196326538.158  
S28  37765126.966                  
> 2026 04 15 09 48 25.0020000  0  9                     
G29  22359431.419   117499609.820  
G15  21294989.737   111905915.894  
G20  20679298.240   108670430.159  
E03  24692376.527   129759296.400  
G11  22172823.962                  
G13  20336241.291   106867669.1302 
G05  21832616.982                  
S29  37359869.023   196327431.253  
S28  37765297.916                  
> 2026 04 15 09 48 26.0020000  0 10                     
G29  22359268.792   117498755.244  
G15  21294755.840   111904685.697  
G20  20679387.783   108670899.860  
E03  24692166.024   129758191.035  
E36  25869072.224                3 
G11  22173181.978                  
G13  20336308.341   106868005.0692 
G05  21832907.635                  
S29  37360039.246   196328324.371  
S28  37765468.634                  
> 2026 04 15 09 48 27.0020000  0 10                     
G29  22359106.154   117497901.104  
G15  21294522.035   111903455.858  
G20  20679477.271   108671370.010  
E03  24691955.626   129757085.818  
E36  25869355.485                3 
G11  22173540.056                  
G13  20336371.837   106868341.6572 
G05  21833198.392   114734240.6571 
S29  37360209.275   196329217.380  
S28  37765639.040                  
> 2026 04 15 09 48 28.0020000  0 11                     
G29  22358943.754   117497047.245  
G15  21294288.260   111902226.221  
G20  20679566.816   108671840.503  
E03  24691745.483   129755980.722  
J07  36987499.650                3 
E36  25869637.669                3 
G11  22173898.329                  
G13  20336437.656   106868678.6192 
G05  21833488.895   114735768.036  
S29  37360379.552   196330110.077  
S28  37765809.228                  
> 2026 04 15 09 48 29.0020000  0 11                     
G29  22358781.559   117496193.914  
G15  21294054.233   111900997.009  
G20  20679656.506   108672311.546  
E03  24691535.345   129754875.890  
J07  36987675.986                3 
E36  25869924.684                3 
G11  22174256.722                  
G13  20336500.616   106869016.1612 
G05  21833779.546   114737295.520  
S29  37360549.830   196331002.728  
S28  37765979.795                3 
> 2026 04 15 09 48 30.0020000  0 11                     
G29  22358619.372   117495341.009  
G15  21293820.483   111899768.184  
G20  20679746.354   108672783.066  
E03  24691324.740   129753771.274  
J07  36987850.013                3 
E36  25870208.545                  
G11  22174615.056                3 
G13  20336564.664                2 
G05  21834070.086                  
S29  37360719.714   196331895.264  
S28  37766150.090   198462457.3353 
